"",区站号,省份,站名,纬度,经度
0,58015.0,安徽,砀山,34.27,116.2
1,58016.0,安徽,萧县,34.11,116.58
2,58102.0,安徽,亳州,33.52,115.46
3,58107.0,安徽,临泉,33.01,115.17
4,58108.0,安徽,界首,33.14,115.2
5,58109.0,安徽,太和,33.11,115.37
6,58112.0,安徽,天柱山,30.44,116.27
7,58113.0,安徽,濉溪,33.56,116.45
8,58114.0,安徽,涡阳,33.29,116.11
9,58116.0,安徽,淮北,33.59,116.5
10,58117.0,安徽,利辛,33.08,116.12
11,58118.0,安徽,蒙城,33.16,116.31
12,58122.0,安徽,宿州,33.38,116.59
13,58125.0,安徽,灵璧,33.35,117.31
14,58126.0,安徽,泗县,33.28,117.52
15,58127.0,安徽,怀远,32.59,117.12
16,58128.0,安徽,固镇,33.2,117.21
17,58129.0,安徽,五河,33.09,117.5
18,58202.0,安徽,阜南,32.4,115.34
19,58203.0,安徽,阜阳,32.52,115.44
20,58210.0,安徽,颍上,32.39,116.14
21,58212.0,安徽,凤台,32.43,116.46
22,58214.0,安徽,霍邱,32.2,116.17
23,58215.0,安徽,寿县,32.26,116.47
24,58220.0,安徽,长丰,32.28,117.09
25,58221.0,安徽,蚌埠,32.51,117.18
26,58222.0,安徽,凤阳,32.51,117.33
27,58223.0,安徽,明光,32.48,117.59
28,58224.0,安徽,淮南,32.39,117.01
29,58225.0,安徽,定远,32.32,117.4
30,58234.0,安徽,来安,32.28,118.25
31,58236.0,安徽,滁州,32.21,118.15
32,58240.0,安徽,天长,32.41,119.01
33,58306.0,安徽,金寨,31.41,115.53
34,58311.0,安徽,六安,31.44,116.3
35,58314.0,安徽,霍山,31.24,116.19
36,58316.0,安徽,舒城,31.28,116.55
37,58317.0,安徽,岳西,30.52,116.22
38,58319.0,安徽,桐城,31.04,116.57
39,58320.0,安徽,肥西,31.44,117.08
40,58321.0,安徽,合肥,31.47,117.18
41,58323.0,安徽,肥东,31.53,117.28
42,58326.0,安徽,巢湖,31.35,117.5
43,58327.0,安徽,庐江,31.16,117.17
44,58329.0,安徽,无为,31.2,117.52
45,58330.0,安徽,含山,31.45,118.05
46,58331.0,安徽,和县,31.44,118.22
47,58334.0,安徽,芜湖,31.23,118.22
48,58335.0,安徽,当涂,31.34,118.31
49,58336.0,安徽,马鞍山,31.42,118.34
50,58337.0,安徽,繁昌,31.05,118.11
51,58338.0,安徽,芜湖县,31.09,118.35
52,58417.0,安徽,宿松,30.1,116.08
53,58429.0,安徽,铜陵,30.59,117.51
54,58431.0,安徽,南陵,30.54,118.19
55,58432.0,安徽,泾县,30.41,118.24
56,58433.0,安徽,宣城,30.56,118.45
57,58435.0,安徽,旌德,30.18,118.32
58,58436.0,安徽,宁国,30.37,118.59
59,58437.0,安徽,黄山,30.08,118.09
60,58441.0,安徽,广德,30.52,119.25
61,58442.0,安徽,郎溪,31.1,119.11
62,58520.0,安徽,祁门,29.51,117.43
63,58523.0,安徽,黟县,29.56,117.56
64,58530.0,安徽,歙县,29.52,118.26
65,58531.0,安徽,屯溪,29.43,118.17
66,58534.0,安徽,休宁,29.47,118.11
67,54398.0,北京,顺义,40.08,116.37
68,54399.0,北京,海淀,39.59,116.17
69,54406.0,北京,延庆,40.27,115.58
70,54416.0,北京,密云,40.23,116.52
71,54419.0,北京,怀柔,40.22,116.38
72,54421.0,北京,密云上甸子,40.39,117.07
73,54424.0,北京,平谷,40.1,117.07
74,54431.0,北京,通州,39.55,116.38
75,54433.0,北京,朝阳,39.57,116.3
76,54499.0,北京,昌平,40.13,116.13
77,54501.0,北京,斋堂,39.58,115.41
78,54505.0,北京,门头沟,39.56,116.06
79,54511.0,北京,北京,39.48,116.28
80,54513.0,北京,石景山,39.57,116.12
81,54514.0,北京,丰台,39.52,116.15
82,54594.0,北京,大兴,39.43,116.21
83,54596.0,北京,房山,39.46,116.12
84,54597.0,北京,霞云岭,39.44,115.44
85,58724.0,福建,光泽,27.32,117.19
86,58725.0,福建,邵武,27.2,117.28
87,58730.0,福建,武夷山,27.46,118.02
88,58731.0,福建,浦城,27.55,118.32
89,58734.0,福建,建阳,27.2,118.07
90,58735.0,福建,松溪,27.31,118.45
91,58736.0,福建,政和,27.23,118.49
92,58737.0,福建,建瓯,27.03,118.19
93,58744.0,福建,寿宁,27.27,119.25
94,58747.0,福建,周宁,27.09,119.21
95,58748.0,福建,福安,27.06,119.39
96,58749.0,福建,柘荣,27.14,119.53
97,58754.0,福建,福鼎,27.2,120.12
98,58818.0,福建,宁化,26.14,116.38
99,58819.0,福建,清流,26.11,116.49
100,58820.0,福建,泰宁,26.54,117.1
101,58822.0,福建,建宁,26.5,116.51
102,58823.0,福建,顺昌,26.48,117.48
103,58824.0,福建,明溪,26.24,117.09
104,58826.0,福建,沙县,26.24,117.48
105,58828.0,福建,三明,26.16,117.37
106,58836.0,福建,古田,26.35,118.44
107,58837.0,福建,尤溪,26.09,118.09
108,58839.0,福建,闽清,26.14,118.51
109,58843.0,福建,霞浦,26.53,120.01
110,58844.0,福建,闽侯,26.09,119.09
111,58845.0,福建,罗源,26.3,119.32
112,58846.0,福建,宁德,26.4,119.31
113,58847.0,福建,福州,26.05,119.17
114,58848.0,福建,连江,26.12,119.33
115,58850.0,福建,三沙,26.55,120.14
116,58911.0,福建,长汀,25.51,116.22
117,58917.0,福建,武平,25.05,116.06
118,58918.0,福建,上杭,25.03,116.25
119,58923.0,福建,大田,25.42,117.5
120,58926.0,福建,漳平,25.18,117.25
121,58927.0,福建,龙岩,25.03,117.01
122,58928.0,福建,华安,25.01,117.32
123,58929.0,福建,安溪,25.04,118.09
124,58931.0,福建,九仙山,25.43,118.06
125,58932.0,福建,永泰,25.52,118.56
126,58934.0,福建,永春,25.2,118.16
127,58935.0,福建,德化,25.29,118.14
128,58938.0,福建,秀屿,25.14,118.59
129,58941.0,福建,长乐,25.58,119.3
130,58942.0,福建,福清,25.43,119.23
131,58944.0,福建,平潭,25.31,119.47
132,58946.0,福建,莆田,25.27,119.0
133,59113.0,福建,永定,24.44,116.43
134,59122.0,福建,长泰,24.37,117.45
135,59124.0,福建,南靖,24.31,117.23
136,59125.0,福建,平和,24.23,117.18
137,59127.0,福建,龙海,24.26,117.5
138,59129.0,福建,漳浦,24.08,117.36
139,59130.0,福建,同安,24.44,118.09
140,59131.0,福建,南安,24.58,118.22
141,59133.0,福建,崇武,24.54,118.55
142,59134.0,福建,厦门,24.29,118.04
143,59320.0,福建,诏安,23.45,117.08
144,59322.0,福建,云霄,23.59,117.22
145,52323.0,甘肃,马鬃山,41.48,97.02
146,52515.0,甘肃,肃北,39.31,94.52
147,52533.0,甘肃,酒泉,39.46,98.29
148,52546.0,甘肃,高台,39.22,99.5
149,52557.0,甘肃,临泽,39.09,100.1
150,52643.0,甘肃,肃南,38.5,99.37
151,52652.0,甘肃,张掖,39.05,100.17
152,52656.0,甘肃,民乐,38.26,100.49
153,52674.0,甘肃,永昌,38.14,101.58
154,52679.0,甘肃,武威,37.55,102.4
155,52681.0,甘肃,民勤,38.38,103.05
156,52784.0,甘肃,古浪,37.28,102.54
157,52787.0,甘肃,乌鞘岭,37.12,102.52
158,52797.0,甘肃,景泰,37.11,104.03
159,52881.0,甘肃,天祝,36.59,103.11
160,52884.0,甘肃,皋兰,36.21,103.57
161,52885.0,甘肃,永登,36.45,103.15
162,52895.0,甘肃,靖远,36.34,104.41
163,52896.0,甘肃,白银,36.33,104.09
164,52978.0,甘肃,夏河,35.12,102.31
165,52980.0,甘肃,永靖,35.58,103.18
166,52981.0,甘肃,东乡,35.41,103.23
167,52982.0,甘肃,广河,35.29,103.33
168,52983.0,甘肃,榆中,35.52,104.09
169,52984.0,甘肃,临夏,35.35,103.11
170,52985.0,甘肃,和政,35.25,103.2
171,52986.0,甘肃,临洮,35.22,103.52
172,52988.0,甘肃,康乐,35.22,103.43
173,52993.0,甘肃,会宁,35.41,105.04
174,52995.0,甘肃,安定,35.35,104.37
175,52996.0,甘肃,华家岭,35.23,105.01
176,52998.0,甘肃,渭源,35.08,104.12
177,53821.0,甘肃,环县,36.34,107.18
178,53829.0,甘肃,庆城,35.59,107.54
179,53906.0,甘肃,静宁,35.31,105.43
180,53908.0,甘肃,通渭,35.13,105.14
181,53915.0,甘肃,崆峒,35.33,106.4
182,53917.0,甘肃,庄浪,35.13,106.04
183,53923.0,甘肃,西峰,35.44,107.38
184,53924.0,甘肃,灵台,35.04,107.37
185,53925.0,甘肃,镇原,35.41,107.11
186,53926.0,甘肃,泾川,35.21,107.21
187,53927.0,甘肃,华亭,35.12,106.37
188,53928.0,甘肃,崇信,35.18,107.01
189,53930.0,甘肃,华池,36.27,107.59
190,53934.0,甘肃,合水,35.47,107.59
191,53935.0,甘肃,正宁,35.29,108.24
192,53937.0,甘肃,宁县,35.31,107.55
193,56071.0,甘肃,碌曲,34.35,102.3
194,56074.0,甘肃,玛曲,34.0,102.05
195,56080.0,甘肃,合作,35.0,102.54
196,56081.0,甘肃,临潭,34.42,103.21
197,56082.0,甘肃,卓尼,34.35,103.3
198,56084.0,甘肃,迭部,34.04,103.14
199,56091.0,甘肃,漳县,34.51,104.28
200,56092.0,甘肃,陇西,35.0,104.39
201,56093.0,甘肃,岷县,34.26,104.01
202,56094.0,甘肃,舟曲,33.47,104.22
203,56095.0,甘肃,宕昌,34.02,104.23
204,56096.0,甘肃,武都,33.24,104.55
205,56192.0,甘肃,文县,32.57,104.4
206,57001.0,甘肃,甘谷,34.45,105.2
207,57002.0,甘肃,秦安,34.51,105.39
208,57004.0,甘肃,武山,34.44,104.53
209,57006.0,甘肃,天水,34.35,105.45
210,57007.0,甘肃,礼县,34.11,105.11
211,57008.0,甘肃,西和,34.02,105.18
212,57011.0,甘肃,清水,34.45,106.09
213,57012.0,甘肃,张家川,34.59,106.12
214,57014.0,甘肃,麦积,34.34,105.52
215,57102.0,甘肃,成县,33.45,105.43
216,57105.0,甘肃,康县,33.2,105.36
217,57110.0,甘肃,徽县,33.47,106.05
218,57111.0,甘肃,两当,33.55,106.18
219,57988.0,广东,乐昌,25.09,113.21
220,57989.0,广东,仁化,25.04,113.46
221,57996.0,广东,南雄,25.05,114.15
222,59071.0,广东,连南,24.44,112.17
223,59072.0,广东,连州,24.48,112.22
224,59074.0,广东,连山,24.34,112.09
225,59075.0,广东,阳山,24.29,112.38
226,59081.0,广东,乳源,24.47,113.17
227,59082.0,广东,韶关,24.4,113.36
228,59087.0,广东,佛冈,23.53,113.31
229,59088.0,广东,英德,24.11,113.25
230,59090.0,广东,始兴,24.57,114.04
231,59094.0,广东,翁源,24.21,114.07
232,59096.0,广东,连平,24.22,114.29
233,59097.0,广东,新丰,24.03,114.12
234,59099.0,广东,和平,24.27,114.56
235,59106.0,广东,平远,24.35,115.54
236,59107.0,广东,龙川,24.07,115.17
237,59109.0,广东,兴宁,24.09,115.44
238,59114.0,广东,蕉岭,24.39,116.1
239,59116.0,广东,大埔,24.2,116.42
240,59117.0,广东,梅县,24.17,116.04
241,59264.0,广东,封开,23.24,111.3
242,59268.0,广东,郁南,23.15,111.32
243,59269.0,广东,德庆,23.1,111.47
244,59270.0,广东,怀集,23.55,112.11
245,59271.0,广东,广宁,23.38,112.26
246,59276.0,广东,四会,23.21,112.39
247,59278.0,广东,高要,23.02,112.27
248,59279.0,广东,三水,23.11,112.52
249,59280.0,广东,清远,23.43,113.05
250,59284.0,广东,花都,23.25,113.14
251,59285.0,广东,从化,23.34,113.36
252,59287.0,广东,广州,23.13,113.29
253,59288.0,广东,南海,23.09,113.01
254,59289.0,广东,东莞,22.58,113.44
255,59290.0,广东,龙门,23.47,114.15
256,59293.0,广东,河源,23.48,114.44
257,59294.0,广东,增城,23.2,113.5
258,59297.0,广东,博罗,23.11,114.17
259,59298.0,广东,惠阳,23.04,114.22
260,59303.0,广东,五华,23.55,115.45
261,59304.0,广东,紫金,23.38,115.11
262,59306.0,广东,揭西,23.27,115.51
263,59310.0,广东,丰顺,23.46,116.11
264,59312.0,广东,潮州,23.4,116.42
265,59313.0,广东,饶平,23.41,116.59
266,59314.0,广东,普宁,23.18,116.08
267,59315.0,广东,揭阳,23.35,116.24
268,59316.0,广东,汕头,23.24,116.41
269,59317.0,广东,惠来,23.02,116.18
270,59318.0,广东,潮阳,23.16,116.35
271,59319.0,广东,澄海,23.26,116.5
272,59324.0,广东,南澳,23.26,117.02
273,59456.0,广东,信宜,22.21,110.56
274,59462.0,广东,罗定,22.42,111.36
275,59469.0,广东,阳春,22.1,111.47
276,59470.0,广东,新兴,22.42,112.12
277,59471.0,广东,云浮,22.56,112.03
278,59473.0,广东,鹤山,22.46,112.58
279,59475.0,广东,开平,22.24,112.39
280,59476.0,广东,新会,22.32,113.02
281,59477.0,广东,恩平,22.16,112.14
282,59478.0,广东,台山,22.15,112.47
283,59480.0,广东,顺德,22.51,113.15
284,59481.0,广东,番禺,22.56,113.19
285,59485.0,广东,中山,22.3,113.24
286,59487.0,广东,斗门,22.14,113.18
287,59488.0,广东,珠海,22.17,113.34
288,59492.0,广东,惠东,22.58,114.44
289,59493.0,广东,深圳,22.32,114.0
290,59500.0,广东,海丰,22.58,115.19
291,59501.0,广东,汕尾,22.48,115.22
292,59502.0,广东,陆丰,22.57,115.39
293,59650.0,广东,遂溪,21.24,110.15
294,59653.0,广东,高州,21.56,110.51
295,59654.0,广东,廉江,21.38,110.18
296,59655.0,广东,化州,21.39,110.37
297,59656.0,广东,吴川,21.24,110.49
298,59658.0,广东,湛江,21.09,110.18
299,59659.0,广东,茂名,21.45,110.55
300,59663.0,广东,阳江,21.5,111.58
301,59664.0,广东,电白,21.32,110.59
302,59673.0,广东,上川岛,21.44,112.46
303,59750.0,广东,雷州,20.58,110.04
304,59754.0,广东,徐闻,20.2,110.11
305,57859.0,广西,资源,26.02,110.38
306,57927.0,广西,天峨,24.58,107.11
307,57941.0,广西,三江,25.47,109.36
308,57942.0,广西,龙胜,25.48,110.0
309,57947.0,广西,融安,25.13,109.24
310,57948.0,广西,融水,25.05,109.15
311,57949.0,广西,永福,24.59,110.0
312,57954.0,广西,临桂,25.14,110.11
313,57955.0,广西,兴安,25.37,110.4
314,57956.0,广西,灵川,25.25,110.19
315,57957.0,广西,桂林,25.19,110.18
316,57960.0,广西,全州,25.56,111.04
317,57964.0,广西,灌阳,25.3,111.09
318,59001.0,广西,隆林,24.47,105.2
319,59004.0,广西,西林,24.3,105.06
320,59012.0,广西,乐业,24.47,106.33
321,59015.0,广西,凌云,24.21,106.34
322,59017.0,广西,田林,24.16,106.16
323,59021.0,广西,凤山,24.33,107.02
324,59023.0,广西,河池,24.42,108.02
325,59025.0,广西,东兰,24.32,107.23
326,59027.0,广西,巴马,24.08,107.15
327,59031.0,广西,环江,24.49,108.16
328,59034.0,广西,宜州,24.29,108.4
329,59037.0,广西,都安,23.56,108.06
330,59038.0,广西,忻城,24.04,108.39
331,59041.0,广西,柳城,24.39,109.15
332,59044.0,广西,沙塘,24.28,109.23
333,59045.0,广西,鹿寨,24.29,109.45
334,59046.0,广西,柳州,24.21,109.24
335,59047.0,广西,柳江,24.15,109.2
336,59052.0,广西,恭城,24.5,110.49
337,59053.0,广西,平乐,24.37,110.4
338,59055.0,广西,荔浦,24.3,110.24
339,59057.0,广西,金秀,24.08,110.11
340,59058.0,广西,蒙山,24.12,110.31
341,59059.0,广西,昭平,24.11,110.48
342,59065.0,广西,贺州,24.25,111.3
343,59209.0,广西,那坡,23.25,105.5
344,59211.0,广西,百色,23.54,106.36
345,59215.0,广西,德保,23.2,106.38
346,59218.0,广西,靖西,23.08,106.25
347,59224.0,广西,田东,23.36,107.07
348,59227.0,广西,天等,23.07,107.08
349,59228.0,广西,平果,23.19,107.35
350,59229.0,广西,隆安,23.1,107.42
351,59230.0,广西,马山,23.43,108.1
352,59235.0,广西,上林,23.26,108.37
353,59237.0,广西,武鸣,23.1,108.17
354,59238.0,广西,宾阳,23.13,108.48
355,59241.0,广西,象州,23.58,109.41
356,59242.0,广西,来宾,23.45,109.14
357,59246.0,广西,武宣,23.36,109.4
358,59255.0,广西,平南,23.33,110.23
359,59256.0,广西,藤县,23.22,110.55
360,59265.0,广西,梧州,23.29,111.18
361,59266.0,广西,苍梧,23.25,111.14
362,59419.0,广西,凭祥,22.06,106.45
363,59421.0,广西,大新,22.5,107.12
364,59429.0,广西,上思,22.11,108.01
365,59431.0,广西,南宁,22.38,108.13
366,59432.0,广西,南宁城区,22.48,108.24
367,59435.0,广西,邕宁,22.46,108.29
368,59441.0,广西,横县,22.42,109.15
369,59446.0,广西,灵山,22.25,109.18
370,59448.0,广西,浦北,22.16,109.33
371,59449.0,广西,博白,22.18,109.59
372,59451.0,广西,北流,22.42,110.21
373,59452.0,广西,容县,22.5,110.32
374,59454.0,广西,岑溪,22.57,111.0
375,59457.0,广西,陆川,22.19,110.16
376,59632.0,广西,钦州,21.57,108.37
377,59635.0,广西,防城港,21.37,108.21
378,59640.0,广西,合浦,21.4,109.11
379,59644.0,广西,北海,21.27,109.08
380,56598.0,贵州,赫章,27.08,104.44
381,56691.0,贵州,威宁,26.52,104.17
382,56792.0,贵州,普安,25.47,104.58
383,56793.0,贵州,盘县,25.43,104.28
384,57606.0,贵州,桐梓,28.08,106.5
385,57623.0,贵州,道真,28.53,107.36
386,57625.0,贵州,正安,28.33,107.27
387,57634.0,贵州,务川,28.31,107.53
388,57636.0,贵州,沿河,28.34,108.3
389,57637.0,贵州,德江,28.15,108.06
390,57647.0,贵州,松桃,28.09,109.11
391,57707.0,贵州,毕节,27.18,105.17
392,57708.0,贵州,大方,27.09,105.36
393,57710.0,贵州,仁怀,27.48,106.24
394,57714.0,贵州,金沙,27.28,106.14
395,57717.0,贵州,遵义县,27.32,106.5
396,57718.0,贵州,息烽,27.06,106.43
397,57719.0,贵州,开阳,27.04,106.58
398,57722.0,贵州,湄潭,27.46,107.28
399,57723.0,贵州,凤冈,27.59,107.43
400,57728.0,贵州,瓮安,27.04,107.28
401,57729.0,贵州,余庆,27.14,107.53
402,57731.0,贵州,思南,27.57,108.15
403,57732.0,贵州,印江,28.01,108.24
404,57734.0,贵州,石阡,27.34,108.14
405,57735.0,贵州,岑巩,27.11,108.49
406,57736.0,贵州,江口,27.42,108.51
407,57737.0,贵州,施秉,27.02,108.07
408,57738.0,贵州,镇远,27.03,108.25
409,57739.0,贵州,玉屏,27.14,108.55
410,57741.0,贵州,铜仁,27.43,109.11
411,57742.0,贵州,万山,27.31,109.12
412,57800.0,贵州,纳雍,26.46,105.22
413,57803.0,贵州,黔西,27.02,106.01
414,57805.0,贵州,织金,26.41,105.46
415,57806.0,贵州,安顺,26.15,105.54
416,57807.0,贵州,六枝,26.12,105.28
417,57808.0,贵州,普定,26.19,105.45
418,57809.0,贵州,镇宁,26.04,105.45
419,57811.0,贵州,修文,26.5,106.36
420,57814.0,贵州,平坝,26.25,106.16
421,57816.0,贵州,贵阳,26.35,106.44
422,57821.0,贵州,福泉,26.42,107.3
423,57822.0,贵州,黄平,26.54,107.54
424,57824.0,贵州,贵定,26.35,107.14
425,57825.0,贵州,凯里,26.36,107.59
426,57827.0,贵州,都匀,26.19,107.32
427,57828.0,贵州,麻江,26.3,107.35
428,57829.0,贵州,丹寨,26.12,107.48
429,57832.0,贵州,三穗,26.58,108.4
430,57834.0,贵州,台江,26.41,108.18
431,57835.0,贵州,剑河,26.43,108.26
432,57837.0,贵州,雷山,26.24,108.04
433,57839.0,贵州,黎平,26.14,109.09
434,57840.0,贵州,天柱,26.54,109.12
435,57844.0,贵州,锦屏,26.41,109.11
436,57900.0,贵州,晴隆,25.5,105.13
437,57902.0,贵州,兴仁,25.26,105.11
438,57903.0,贵州,关岭,25.56,105.36
439,57905.0,贵州,贞丰,25.24,105.38
440,57906.0,贵州,望谟,25.11,106.05
441,57907.0,贵州,兴义,25.05,104.54
442,57908.0,贵州,安龙,25.07,105.29
443,57909.0,贵州,册亨,24.59,105.49
444,57910.0,贵州,紫云,25.46,106.05
445,57911.0,贵州,白云,26.4,106.39
446,57912.0,贵州,惠水,26.08,106.38
447,57913.0,贵州,龙里,26.27,106.59
448,57914.0,贵州,花溪,26.25,106.4
449,57915.0,贵州,乌当,26.38,106.46
450,57916.0,贵州,罗甸,25.26,106.46
451,57921.0,贵州,平塘,25.5,107.19
452,57922.0,贵州,独山,25.5,107.33
453,57923.0,贵州,三都,25.59,107.52
454,57926.0,贵州,荔波,25.25,107.53
455,57932.0,贵州,榕江,25.58,108.32
456,57936.0,贵州,从江,25.45,108.55
457,59757.0,海南,琼山,20.0,110.22
458,59758.0,海南,海口,20.0,110.15
459,59838.0,海南,东方,19.06,108.37
460,59842.0,海南,临高,19.54,109.41
461,59843.0,海南,澄迈,19.44,110.0
462,59845.0,海南,儋州,19.31,109.35
463,59847.0,海南,昌江,19.16,109.03
464,59848.0,海南,白沙,19.14,109.26
465,59849.0,海南,琼中,19.02,109.5
466,59851.0,海南,定安,19.4,110.2
467,59854.0,海南,屯昌,19.22,110.06
468,59855.0,海南,琼海,19.14,110.28
469,59856.0,海南,文昌,19.37,110.45
470,59941.0,海南,五指山,18.46,109.31
471,59945.0,海南,保亭,18.39,109.42
472,59951.0,海南,万宁,18.48,110.2
473,53392.0,河北,康保,41.51,114.36
474,53397.0,河北,尚义,41.06,113.59
475,53399.0,河北,张北,41.09,114.42
476,53491.0,河北,怀安,40.4,114.23
477,53492.0,河北,阳原,40.06,114.09
478,53498.0,河北,宣化,40.34,115.02
479,53499.0,河北,万全,40.46,114.44
480,53593.0,河北,蔚县,39.5,114.34
481,53596.0,河北,顺平,38.51,115.08
482,53599.0,河北,涞源,39.22,114.41
483,53680.0,河北,灵寿,38.18,114.23
484,53682.0,河北,曲阳,38.38,114.41
485,53688.0,河北,行唐,38.25,114.33
486,53689.0,河北,晋州,38.01,115.04
487,53690.0,河北,阜平,38.51,114.11
488,53691.0,河北,正定,38.09,114.34
489,53692.0,河北,唐县,38.44,114.59
490,53693.0,河北,井陉,38.02,114.08
491,53694.0,河北,平山,38.16,114.13
492,53695.0,河北,新乐,38.21,114.41
493,53696.0,河北,定州,38.33,115.01
494,53697.0,河北,藁城,38.02,114.5
495,53699.0,河北,无极,38.11,114.57
496,53773.0,河北,临漳,36.2,114.37
497,53781.0,河北,沙河,36.52,114.28
498,53784.0,河北,赵县,37.45,114.47
499,53785.0,河北,柏乡,37.31,114.4
500,53789.0,河北,栾城,37.53,114.38
501,53790.0,河北,高邑,37.38,114.36
502,53791.0,河北,元氏,37.46,114.31
503,53792.0,河北,临城,37.27,114.29
504,53794.0,河北,隆尧,37.21,114.45
505,53795.0,河北,赞皇,37.39,114.22
506,53796.0,河北,宁晋,37.37,114.53
507,53797.0,河北,内邱,37.17,114.31
508,53798.0,河北,邢台,37.04,114.3
509,53799.0,河北,巨鹿,37.14,114.59
510,53883.0,河北,任县,37.08,114.42
511,53886.0,河北,涉县,36.34,113.4
512,53890.0,河北,武安,36.4,114.06
513,53891.0,河北,南和,37.01,114.41
514,53892.0,河北,邯郸,36.37,114.28
515,53893.0,河北,曲周,36.46,114.57
516,53894.0,河北,峰峰,36.24,114.12
517,53895.0,河北,永年,36.47,114.3
518,53896.0,河北,魏县,36.21,114.57
519,53897.0,河北,磁县,36.23,114.23
520,53899.0,河北,广平,36.29,114.58
521,53980.0,河北,肥乡,36.33,114.48
522,53996.0,河北,成安,36.27,114.39
523,54301.0,河北,沽源,41.4,115.4
524,54304.0,河北,崇礼,40.57,115.16
525,54308.0,河北,丰宁,41.12,116.38
526,54311.0,河北,围场,41.58,117.46
527,54318.0,河北,隆化,41.19,117.44
528,54319.0,河北,平泉,41.0,118.4
529,54401.0,河北,张家口,40.46,114.55
530,54404.0,河北,赤城,40.53,115.5
531,54405.0,河北,怀来,40.25,115.3
532,54408.0,河北,涿鹿,40.23,115.13
533,54420.0,河北,滦平,40.56,117.2
534,54423.0,河北,承德,40.58,117.55
535,54425.0,河北,兴隆,40.24,117.28
536,54429.0,河北,遵化,40.12,117.57
537,54430.0,河北,承德县,40.46,118.09
538,54432.0,河北,宽城,40.36,118.29
539,54434.0,河北,迁西,40.1,118.2
540,54436.0,河北,青龙,40.25,118.57
541,54437.0,河北,滦南,39.3,118.37
542,54438.0,河北,卢龙,39.53,118.53
543,54439.0,河北,迁安,40.01,118.43
544,54449.0,河北,秦皇岛,39.51,119.31
545,54502.0,河北,涿州,39.29,116.02
546,54503.0,河北,容城,39.04,115.49
547,54506.0,河北,高碑店,39.19,115.57
548,54507.0,河北,易县,39.2,115.31
549,54510.0,河北,大厂,39.55,116.57
550,54512.0,河北,固安,39.25,116.17
551,54515.0,河北,廊坊,39.3,116.42
552,54518.0,河北,霸州,39.1,116.24
553,54519.0,河北,永清,39.18,116.29
554,54520.0,河北,三河,39.58,117.05
555,54521.0,河北,香河,39.46,116.59
556,54522.0,河北,玉田,39.53,117.44
557,54531.0,河北,滦县,39.44,118.43
558,54532.0,河北,丰润,39.48,118.05
559,54533.0,河北,丰南,39.35,118.06
560,54534.0,河北,唐山,39.39,118.06
561,54535.0,河北,曹妃甸,39.17,118.28
562,54539.0,河北,乐亭,39.26,118.53
563,54540.0,河北,昌黎,39.44,119.12
564,54541.0,河北,抚宁,39.54,119.14
565,54601.0,河北,徐水,38.59,115.39
566,54602.0,河北,保定,38.44,115.29
567,54603.0,河北,高阳,38.43,115.46
568,54604.0,河北,安国,38.25,115.2
569,54605.0,河北,安新,38.56,115.56
570,54606.0,河北,饶阳,38.14,115.44
571,54607.0,河北,望都,38.43,115.07
572,54608.0,河北,深州,38.0,115.33
573,54609.0,河北,安平,38.14,115.35
574,54610.0,河北,任丘,38.44,116.06
575,54611.0,河北,满城,38.56,115.19
576,54612.0,河北,文安,38.51,116.27
577,54613.0,河北,大城,38.42,116.37
578,54614.0,河北,河间,38.25,116.03
579,54615.0,河北,青县,38.35,116.51
580,54616.0,河北,沧州,38.21,116.51
581,54617.0,河北,献县,38.11,116.07
582,54618.0,河北,泊头,38.05,116.33
583,54620.0,河北,蠡县,38.29,115.34
584,54621.0,河北,深泽,38.11,115.11
585,54624.0,河北,黄骅,38.24,117.19
586,54626.0,河北,肃宁,38.25,115.49
587,54627.0,河北,盐山,38.02,117.14
588,54628.0,河北,海兴,38.09,117.29
589,54631.0,河北,广宗,37.04,115.09
590,54632.0,河北,平乡,37.04,115.02
591,54633.0,河北,新河,37.31,115.14
592,54636.0,河北,雄县,39.01,116.06
593,54640.0,河北,鸡泽,36.55,114.52
594,54644.0,河北,孟村,38.03,117.07
595,54700.0,河北,武强,38.02,115.56
596,54701.0,河北,辛集,37.56,115.12
597,54702.0,河北,衡水,37.44,115.42
598,54703.0,河北,武邑,37.48,115.53
599,54704.0,河北,冀州,37.31,115.34
600,54705.0,河北,南宫,37.22,115.23
601,54706.0,河北,清河,37.05,115.4
602,54707.0,河北,故城,37.21,115.59
603,54708.0,河北,枣强,37.3,115.44
604,54710.0,河北,阜城,37.52,116.1
605,54711.0,河北,景县,37.42,116.17
606,54713.0,河北,东光,37.53,116.32
607,54717.0,河北,吴桥,37.38,116.24
608,54719.0,河北,南皮,38.02,116.41
609,54800.0,河北,威县,37.0,115.15
610,54801.0,河北,临西,36.51,115.29
611,54804.0,河北,大名,36.18,115.08
612,54809.0,河北,馆陶,36.33,115.17
613,54820.0,河北,邱县,36.49,115.1
614,53889.0,河南,林州,36.04,113.49
615,53898.0,河南,安阳,36.03,114.08
616,53972.0,河南,沁阳,35.03,112.54
617,53974.0,河南,淇县,35.37,114.14
618,53978.0,河南,济源,35.05,112.38
619,53979.0,河南,博爱,35.09,113.05
620,53982.0,河南,焦作,35.14,113.16
621,53983.0,河南,封丘,35.02,114.25
622,53984.0,河南,修武,35.14,113.28
623,53985.0,河南,辉县,35.3,113.49
624,53986.0,河南,新乡,35.19,113.53
625,53987.0,河南,武陟,35.06,113.21
626,53989.0,河南,原阳,35.05,113.59
627,53988.0,河南,获嘉,35.16,113.4
628,53991.0,河南,汤阴,35.55,114.2
629,53992.0,河南,浚县,35.39,114.31
630,53993.0,河南,内黄,35.56,114.55
631,53994.0,河南,卫辉,35.23,114.04
632,53995.0,河南,滑县,35.33,114.3
633,53997.0,河南,延津,35.09,114.11
634,53998.0,河南,长垣,35.12,114.39
635,54817.0,河南,台前,35.59,115.52
636,54900.0,河南,濮阳,35.42,115.01
637,54901.0,河南,南乐,36.05,115.1
638,54902.0,河南,清丰,35.54,115.07
639,54903.0,河南,范县,35.51,115.29
640,57051.0,河南,三门峡,34.48,111.12
641,57056.0,河南,灵宝,34.32,110.51
642,57063.0,河南,渑池,34.46,111.46
643,57066.0,河南,洛宁,34.24,111.4
644,57070.0,河南,新安,34.44,112.07
645,57071.0,河南,孟津,34.49,112.26
646,57072.0,河南,孟州,34.55,112.45
647,57074.0,河南,伊川,34.25,112.24
648,57075.0,河南,汝州,34.1,112.52
649,57076.0,河南,偃师,34.44,112.47
650,57078.0,河南,汝阳,34.09,112.28
651,57079.0,河南,温县,34.57,113.02
652,57080.0,河南,巩义,34.44,112.58
653,57081.0,河南,荥阳,34.48,113.26
654,57082.0,河南,登封,34.28,113.01
655,57083.0,河南,郑州,34.43,113.39
656,57084.0,河南,嵩山,34.3,113.03
657,57085.0,河南,新密,34.32,113.2
658,57086.0,河南,新郑,34.23,113.43
659,57087.0,河南,长葛,34.16,113.44
660,57088.0,河南,禹州,34.09,113.3
661,57089.0,河南,许昌,34.04,113.56
662,57090.0,河南,中牟,34.43,113.58
663,57091.0,河南,开封,34.47,114.18
664,57093.0,河南,兰考,34.51,114.49
665,57094.0,河南,尉氏,34.24,114.13
666,57095.0,河南,鄢陵,34.07,114.09
667,57096.0,河南,杞县,34.32,114.47
668,57098.0,河南,扶沟,34.05,114.24
669,57099.0,河南,太康,34.04,114.51
670,57156.0,河南,西峡,33.18,111.3
671,57162.0,河南,嵩县,34.08,112.04
672,57169.0,河南,内乡,33.03,111.52
673,57173.0,河南,鲁山,33.45,112.53
674,57175.0,河南,镇平,33.03,112.14
675,57176.0,河南,南召,33.29,112.25
676,57177.0,河南,舞钢,33.2,113.32
677,57178.0,河南,南阳,33.06,112.29
678,57179.0,河南,方城,33.17,113.0
679,57180.0,河南,郏县,33.59,113.12
680,57181.0,河南,宝丰,33.53,113.03
681,57182.0,河南,襄城,33.51,113.31
682,57183.0,河南,临颍,33.48,113.55
683,57184.0,河南,叶县,33.38,113.18
684,57185.0,河南,舞阳,33.27,113.35
685,57186.0,河南,漯河,33.36,114.03
686,57187.0,河南,社旗,33.04,112.56
687,57188.0,河南,西平,33.22,114.02
688,57189.0,河南,遂平,33.08,113.57
689,57190.0,河南,泛区农试,33.45,114.24
690,57191.0,河南,通许,34.29,114.29
691,57192.0,河南,淮阳,33.44,114.51
692,57193.0,河南,西华,33.47,114.31
693,57194.0,河南,上蔡,33.17,114.16
694,57195.0,河南,川汇区,33.37,114.37
695,57196.0,河南,项城,33.28,114.52
696,57197.0,河南,汝南,32.58,114.21
697,57198.0,河南,商水,33.3,114.34
698,57261.0,河南,淅川,33.07,111.31
699,57271.0,河南,新野,32.31,112.23
700,57273.0,河南,唐河,32.41,112.51
701,57274.0,河南,邓州,32.42,112.07
702,57281.0,河南,泌阳,32.42,113.18
703,57285.0,河南,桐柏,32.23,113.25
704,57290.0,河南,驻马店,32.56,113.55
705,57292.0,河南,平舆,32.58,114.38
706,57293.0,河南,新蔡,32.44,114.59
707,57294.0,河南,确山,32.5,114.01
708,57295.0,河南,正阳,32.37,114.21
709,57296.0,河南,息县,32.21,114.44
710,57297.0,河南,信阳,32.08,114.03
711,57298.0,河南,罗山,32.13,114.33
712,57299.0,河南,光山,32.01,114.54
713,57390.0,河南,鸡公山,31.48,114.04
714,57396.0,河南,新县,31.38,114.51
715,58001.0,河南,睢县,34.26,115.06
716,58004.0,河南,民权,34.39,115.09
717,58005.0,河南,商丘,34.27,115.4
718,58006.0,河南,虞城,34.23,115.53
719,58007.0,河南,柘城,34.04,115.18
720,58008.0,河南,宁陵,34.28,115.2
721,58017.0,河南,夏邑,34.15,116.08
722,58100.0,河南,郸城,33.39,115.1
723,58101.0,河南,鹿邑,33.52,115.29
724,58104.0,河南,沈丘,33.24,115.04
725,58111.0,河南,永城,33.58,116.27
726,58205.0,河南,淮滨,32.28,115.26
727,58207.0,河南,潢川,32.1,115.03
728,58208.0,河南,固始,32.1,115.37
729,58301.0,河南,商城,31.49,115.23
730,50136.0,黑龙江,漠河,52.58,122.31
731,50137.0,黑龙江,北极村,53.28,122.22
732,50246.0,黑龙江,塔河,52.21,124.43
733,50247.0,黑龙江,呼中,52.02,123.34
734,50349.0,黑龙江,新林,51.4,124.24
735,50353.0,黑龙江,呼玛,51.44,126.38
736,50442.0,黑龙江,加格达奇,50.24,124.07
737,50468.0,黑龙江,爱辉,50.15,127.27
738,50557.0,黑龙江,嫩江,49.1,125.14
739,50564.0,黑龙江,孙吴,49.26,127.21
740,50566.0,黑龙江,逊克,49.33,128.28
741,50646.0,黑龙江,讷河,48.29,124.51
742,50655.0,黑龙江,五大连池,48.3,126.11
743,50656.0,黑龙江,北安,48.15,126.3
744,50658.0,黑龙江,克山,48.03,125.53
745,50659.0,黑龙江,克东,48.02,126.15
746,50673.0,黑龙江,嘉荫,48.53,130.24
747,50674.0,黑龙江,乌伊岭,48.34,129.26
748,50739.0,黑龙江,龙江,47.2,123.11
749,50741.0,黑龙江,甘南,47.56,123.3
750,50742.0,黑龙江,富裕,47.48,124.29
751,50745.0,黑龙江,齐齐哈尔,47.23,123.55
752,50749.0,黑龙江,林甸,47.11,124.5
753,50750.0,黑龙江,依安,47.54,125.18
754,50755.0,黑龙江,拜泉,47.36,126.06
755,50756.0,黑龙江,海伦,47.27,126.58
756,50758.0,黑龙江,明水,47.11,125.54
757,50767.0,黑龙江,绥棱,47.14,127.06
758,50772.0,黑龙江,五营,48.06,129.14
759,50774.0,黑龙江,伊春,47.42,128.5
760,50775.0,黑龙江,鹤岗,47.2,130.12
761,50776.0,黑龙江,萝北,47.34,130.5
762,50778.0,黑龙江,同江,47.4,132.32
763,50779.0,黑龙江,抚远,48.22,134.17
764,50787.0,黑龙江,绥滨,47.19,131.5
765,50788.0,黑龙江,富锦,47.14,131.59
766,50842.0,黑龙江,杜蒙,46.5,124.25
767,50844.0,黑龙江,泰来,46.24,123.27
768,50850.0,黑龙江,大庆,46.34,125.08
769,50851.0,黑龙江,青冈,46.41,126.05
770,50852.0,黑龙江,望奎,46.5,126.27
771,50853.0,黑龙江,北林,46.37,126.58
772,50854.0,黑龙江,安达,46.23,125.19
773,50858.0,黑龙江,肇东,46.04,125.56
774,50859.0,黑龙江,兰西,46.17,126.17
775,50861.0,黑龙江,庆安,46.53,127.29
776,50862.0,黑龙江,铁力,46.59,127.59
777,50867.0,黑龙江,巴彦,46.05,127.21
778,50871.0,黑龙江,汤原,46.44,129.53
779,50873.0,黑龙江,佳木斯,46.47,130.18
780,50877.0,黑龙江,依兰,46.18,129.35
781,50878.0,黑龙江,桦川,47.0,130.43
782,50879.0,黑龙江,桦南,46.13,130.33
783,50880.0,黑龙江,集贤,46.44,131.07
784,50884.0,黑龙江,双鸭山,46.38,131.09
785,50888.0,黑龙江,宝清,46.19,132.11
786,50892.0,黑龙江,饶河,46.48,134.0
787,50950.0,黑龙江,肇州,45.42,125.15
788,50953.0,黑龙江,哈尔滨,45.56,126.34
789,50954.0,黑龙江,肇源,45.3,125.05
790,50956.0,黑龙江,呼兰,46.05,126.46
791,50958.0,黑龙江,阿城,45.32,126.56
792,50960.0,黑龙江,宾县,45.44,127.23
793,50962.0,黑龙江,木兰,45.57,128.02
794,50963.0,黑龙江,通河,45.58,128.44
795,50964.0,黑龙江,方正,45.5,128.48
796,50965.0,黑龙江,延寿,45.26,128.16
797,50968.0,黑龙江,尚志,45.13,127.58
798,50971.0,黑龙江,七台河,45.46,131.01
799,50973.0,黑龙江,勃利,45.45,130.36
800,50978.0,黑龙江,鸡西,45.18,130.55
801,50979.0,黑龙江,林口,45.16,130.14
802,50983.0,黑龙江,虎林,45.46,132.58
803,50985.0,黑龙江,密山,45.33,131.52
804,50987.0,黑龙江,鸡东,45.16,131.06
805,54080.0,黑龙江,五常,44.54,127.09
806,54092.0,黑龙江,海林,44.36,129.24
807,54093.0,黑龙江,穆棱,44.56,130.33
808,54094.0,黑龙江,牡丹江,44.3,129.4
809,54096.0,黑龙江,绥芬河,44.23,131.1
810,54098.0,黑龙江,宁安,44.2,129.28
811,54099.0,黑龙江,东宁,44.05,131.08
812,57249.0,湖北,竹溪,32.19,109.41
813,57251.0,湖北,郧西,33.0,110.25
814,57253.0,湖北,郧县,32.51,110.49
815,57256.0,湖北,十堰,32.39,110.47
816,57257.0,湖北,竹山,32.14,110.14
817,57259.0,湖北,房县,32.03,110.45
818,57260.0,湖北,丹江口,32.34,111.31
819,57265.0,湖北,老河口,32.26,111.44
820,57268.0,湖北,谷城,32.16,111.37
821,57278.0,湖北,襄阳,32.0,112.05
822,57279.0,湖北,枣阳,32.09,112.45
823,57355.0,湖北,巴东,31.02,110.22
824,57359.0,湖北,兴山,31.21,110.44
825,57361.0,湖北,保康,31.53,111.16
826,57362.0,湖北,神农架,31.45,110.4
827,57363.0,湖北,南漳,31.48,111.5
828,57370.0,湖北,宜城,31.44,112.13
829,57377.0,湖北,荆门,31.0,112.13
830,57378.0,湖北,钟祥,31.1,112.34
831,57381.0,湖北,随州,31.37,113.2
832,57386.0,湖北,孝昌,31.15,114.0
833,57387.0,湖北,京山,31.0,113.08
834,57388.0,湖北,安陆,31.16,113.42
835,57389.0,湖北,云梦,31.02,113.45
836,57395.0,湖北,大悟,31.34,114.07
837,57398.0,湖北,红安,31.17,114.37
838,57399.0,湖北,麻城,31.08,114.57
839,57439.0,湖北,利川,30.17,108.56
840,57445.0,湖北,建始,30.36,109.43
841,57447.0,湖北,恩施,30.17,109.28
842,57453.0,湖北,夷陵区,30.46,111.19
843,57458.0,湖北,五峰,30.12,110.4
844,57461.0,湖北,宜昌,30.44,111.22
845,57464.0,湖北,长阳,30.28,111.11
846,57465.0,湖北,宜都,30.23,111.27
847,57469.0,湖北,松滋,30.11,111.46
848,57475.0,湖北,潜江,30.24,112.54
849,57476.0,湖北,荆州,30.21,112.09
850,57477.0,湖北,公安,30.04,112.13
851,57481.0,湖北,应城,30.57,113.34
852,57482.0,湖北,孝感,30.54,113.57
853,57483.0,湖北,天门,30.4,113.08
854,57484.0,湖北,沙洋,30.44,112.33
855,57485.0,湖北,仙桃,30.18,113.29
856,57486.0,湖北,汉川,30.39,113.51
857,57489.0,湖北,蔡甸,30.35,114.0
858,57492.0,湖北,新洲,30.5,114.5
859,57494.0,湖北,武汉,30.36,114.03
860,57495.0,湖北,团风,30.4,114.53
861,57496.0,湖北,鄂州,30.22,114.52
862,57498.0,湖北,黄冈,30.26,114.54
863,57499.0,湖北,大冶,30.04,114.53
864,57540.0,湖北,咸丰,29.41,109.09
865,57541.0,湖北,宣恩,30.0,109.29
866,57543.0,湖北,鹤峰,29.54,110.02
867,57545.0,湖北,来凤,29.32,109.25
868,57571.0,湖北,石首,29.42,112.24
869,57573.0,湖北,监利,29.5,112.54
870,57581.0,湖北,洪湖,29.49,113.27
871,57582.0,湖北,赤壁,29.43,113.53
872,57583.0,湖北,嘉鱼,29.55,113.58
873,57586.0,湖北,崇阳,29.32,114.02
874,57589.0,湖北,通城,29.16,113.53
875,57590.0,湖北,咸宁,29.51,114.22
876,57596.0,湖北,金沙,29.38,114.12
877,58401.0,湖北,罗田,30.45,115.24
878,58402.0,湖北,英山,30.44,115.4
879,58404.0,湖北,浠水,30.28,115.13
880,58408.0,湖北,蕲春,30.14,115.26
881,58409.0,湖北,黄梅,30.06,115.56
882,58500.0,湖北,阳新,29.51,115.12
883,58501.0,湖北,武穴,29.55,115.38
884,57544.0,湖南,龙山,29.28,109.27
885,57554.0,湖南,桑植,29.24,110.1
886,57558.0,湖南,张家界,29.08,110.28
887,57562.0,湖南,石门,29.35,111.22
888,57564.0,湖南,慈利,29.26,111.08
889,57565.0,湖南,澧县,29.4,111.44
890,57566.0,湖南,临澧,29.27,111.39
891,57574.0,湖南,南县,29.22,112.24
892,57575.0,湖南,华容,29.31,112.34
893,57577.0,湖南,安乡,29.24,112.1
894,57584.0,湖南,岳阳,29.23,113.05
895,57585.0,湖南,临湘,29.29,113.27
896,57640.0,湖南,花垣,28.35,109.27
897,57642.0,湖南,保靖,28.42,109.38
898,57643.0,湖南,永顺,29.0,109.5
899,57646.0,湖南,古丈,28.37,109.57
900,57649.0,湖南,吉首,28.14,109.41
901,57655.0,湖南,沅陵,28.28,110.24
902,57657.0,湖南,泸溪,28.13,110.12
903,57658.0,湖南,辰溪,28.01,110.12
904,57661.0,湖南,桃源,28.55,111.29
905,57662.0,湖南,常德,29.07,111.41
906,57663.0,湖南,汉寿,28.55,111.57
907,57666.0,湖南,桃江,28.31,112.08
908,57669.0,湖南,安化,28.23,111.13
909,57671.0,湖南,沅江,28.51,112.22
910,57673.0,湖南,湘阴,28.41,112.53
911,57674.0,湖南,赫山,28.34,112.23
912,57678.0,湖南,宁乡,28.15,112.33
913,57679.0,湖南,马坡岭,28.07,112.47
914,57680.0,湖南,汨罗,28.48,113.04
915,57682.0,湖南,平江,28.43,113.34
916,57687.0,湖南,长沙,28.13,112.55
917,57688.0,湖南,浏阳,28.09,113.38
918,57740.0,湖南,凤凰,27.57,109.36
919,57743.0,湖南,麻阳,27.53,109.48
920,57744.0,湖南,新晃,27.22,109.1
921,57745.0,湖南,芷江,27.27,109.41
922,57752.0,湖南,溆浦,27.55,110.36
923,57754.0,湖南,洪江,27.21,110.09
924,57760.0,湖南,冷水江,27.42,111.26
925,57761.0,湖南,新化,27.45,111.18
926,57762.0,湖南,涟源,27.41,111.42
927,57763.0,湖南,娄底,27.41,112.0
928,57771.0,湖南,韶山,27.56,112.32
929,57772.0,湖南,湘乡,27.45,112.3
930,57773.0,湖南,湘潭,27.52,112.49
931,57774.0,湖南,双峰,27.27,112.1
932,57776.0,湖南,南岳,27.18,112.42
933,57777.0,湖南,衡山,27.14,112.52
934,57778.0,湖南,衡东,27.06,112.57
935,57779.0,湖南,攸县,27.0,113.21
936,57780.0,湖南,株洲,27.52,113.1
937,57781.0,湖南,醴陵,27.39,113.3
938,57845.0,湖南,通道,26.1,109.47
939,57865.0,湖南,冷水滩,26.28,111.35
940,57866.0,湖南,永州,26.14,111.37
941,57867.0,湖南,东安,26.24,111.17
942,57868.0,湖南,祁阳,26.36,111.52
943,57870.0,湖南,祁东,26.48,112.06
944,57871.0,湖南,衡阳县,26.59,112.22
945,57872.0,湖南,衡阳,26.54,112.36
946,57874.0,湖南,常宁,26.25,112.24
947,57875.0,湖南,衡南,26.45,112.41
948,57876.0,湖南,耒阳,26.26,112.5
949,57881.0,湖南,安仁,26.43,113.15
950,57882.0,湖南,茶陵,26.47,113.33
951,57886.0,湖南,炎陵,26.29,113.48
952,57887.0,湖南,永兴,26.07,113.07
953,57889.0,湖南,桂东,26.05,113.57
954,57962.0,湖南,双牌,25.58,111.39
955,57965.0,湖南,道县,25.32,111.36
956,57966.0,湖南,宁远,25.36,111.58
957,57969.0,湖南,江永,25.16,111.2
958,57971.0,湖南,新田,25.55,112.12
959,57972.0,湖南,郴州,25.48,113.02
960,57973.0,湖南,桂阳,25.45,112.43
961,57974.0,湖南,嘉禾,25.35,112.22
962,57975.0,湖南,蓝山,25.23,112.12
963,57976.0,湖南,宜章,25.25,112.57
964,57978.0,湖南,临武,25.17,112.33
965,57981.0,湖南,资兴,25.59,113.13
966,57985.0,湖南,汝城,25.34,113.41
967,59063.0,湖南,江华,25.11,111.27
968,50936.0,吉林,白城,45.38,122.5
969,50939.0,吉林,洮南,45.2,122.49
970,50940.0,吉林,镇赉,45.51,123.1
971,50945.0,吉林,大安,45.3,124.16
972,50946.0,吉林,松原,45.11,124.5
973,50948.0,吉林,乾安,45.0,124.01
974,50949.0,吉林,前郭,45.05,124.52
975,54041.0,吉林,通榆,44.48,123.04
976,54049.0,吉林,长岭,44.15,123.58
977,54063.0,吉林,扶余,44.58,126.0
978,54064.0,吉林,农安,44.23,125.09
979,54065.0,吉林,德惠,44.32,125.39
980,54069.0,吉林,九台,44.1,125.48
981,54072.0,吉林,榆树,44.51,126.31
982,54076.0,吉林,舒兰,44.23,126.56
983,54142.0,吉林,双辽,43.3,123.32
984,54154.0,吉林,梨树,43.21,124.18
985,54155.0,吉林,孤家子,43.4,124.14
986,54157.0,吉林,四平,43.1,124.2
987,54161.0,吉林,长春,43.54,125.13
988,54164.0,吉林,伊通,43.21,125.17
989,54165.0,吉林,双阳,43.33,125.38
990,54169.0,吉林,烟筒山,43.18,126.01
991,54171.0,吉林,永吉,43.42,126.31
992,54172.0,吉林,吉林城郊,43.52,126.32
993,54181.0,吉林,蛟河,43.42,127.2
994,54186.0,吉林,敦化,43.22,128.12
995,54187.0,吉林,安图,43.07,128.55
996,54192.0,吉林,罗子沟,43.42,130.16
997,54195.0,吉林,汪清,43.18,129.47
998,54260.0,吉林,辽源,42.55,125.05
999,54261.0,吉林,东丰,42.4,125.28
1000,54263.0,吉林,磐石,42.58,126.03
1001,54266.0,吉林,梅河口,42.32,125.38
1002,54267.0,吉林,柳河,42.15,125.44
1003,54273.0,吉林,桦甸,42.59,126.45
1004,54274.0,吉林,辉南,42.41,125.59
1005,54276.0,吉林,靖宇,42.24,126.48
1006,54279.0,吉林,江源,42.03,126.35
1007,54284.0,吉林,东岗,42.09,127.3
1008,54285.0,吉林,二道,42.25,128.07
1009,54286.0,吉林,和龙,42.32,129.0
1010,54290.0,吉林,龙井,42.46,129.24
1011,54291.0,吉林,珲春,42.54,130.17
1012,54292.0,吉林,延吉,42.52,129.3
1013,54293.0,吉林,图们,42.57,129.5
1014,54362.0,吉林,通化县,41.4,125.44
1015,54363.0,吉林,通化,41.41,125.54
1016,54371.0,吉林,白山,41.56,126.26
1017,54374.0,吉林,临江,41.48,126.53
1018,54377.0,吉林,集安,41.09,126.13
1019,54386.0,吉林,长白,41.25,128.11
1020,58012.0,江苏,丰县,34.41,116.35
1021,58013.0,江苏,沛县,34.45,116.54
1022,58026.0,江苏,邳州,34.24,118.01
1023,58027.0,江苏,徐州,34.17,117.09
1024,58035.0,江苏,新沂,34.2,118.21
1025,58036.0,江苏,东海,34.33,118.43
1026,58038.0,江苏,沭阳,34.05,118.47
1027,58040.0,江苏,赣榆,34.51,119.08
1028,58041.0,江苏,西连岛,34.47,119.26
1029,58044.0,江苏,连云港,34.32,119.14
1030,58045.0,江苏,响水,34.12,119.36
1031,58047.0,江苏,灌云,34.15,119.14
1032,58048.0,江苏,灌南,34.07,119.21
1033,58049.0,江苏,滨海,34.01,119.48
1034,58130.0,江苏,睢宁,33.56,117.57
1035,58131.0,江苏,宿豫,33.58,118.13
1036,58132.0,江苏,泗阳,33.43,118.41
1037,58135.0,江苏,泗洪,33.29,118.13
1038,58138.0,江苏,盱眙,32.59,118.31
1039,58139.0,江苏,洪泽,33.18,118.55
1040,58140.0,江苏,涟水,33.46,119.18
1041,58141.0,江苏,淮安,33.38,118.56
1042,58143.0,江苏,阜宁,33.48,119.51
1043,58145.0,江苏,楚州,33.3,119.09
1044,58146.0,江苏,建湖,33.28,119.46
1045,58147.0,江苏,金湖,32.59,118.58
1046,58148.0,江苏,宝应,33.14,119.18
1047,58150.0,江苏,射阳,33.45,120.18
1048,58154.0,江苏,盐城,33.26,120.12
1049,58158.0,江苏,大丰,33.12,120.29
1050,58235.0,江苏,六合,32.22,118.51
1051,58237.0,江苏,浦口,32.04,118.35
1052,58238.0,江苏,南京,31.56,118.54
1053,58241.0,江苏,高邮,32.48,119.27
1054,58242.0,江苏,仪征,32.18,119.1
1055,58243.0,江苏,兴化,32.57,119.49
1056,58244.0,江苏,江都,32.27,119.35
1057,58245.0,江苏,扬州,32.25,119.25
1058,58246.0,江苏,泰州,32.33,120.0
1059,58247.0,江苏,扬中,32.16,119.48
1060,58249.0,江苏,泰兴,32.1,120.0
1061,58250.0,江苏,姜堰,32.31,120.09
1062,58251.0,江苏,东台,32.51,120.17
1063,58252.0,江苏,丹徒,32.11,119.28
1064,58254.0,江苏,海安,32.31,120.27
1065,58255.0,江苏,如皋,32.22,120.34
1066,58257.0,江苏,靖江,31.59,120.15
1067,58259.0,江苏,南通,32.05,120.59
1068,58264.0,江苏,如东,32.2,121.11
1069,58265.0,江苏,吕泗,32.04,121.36
1070,58268.0,江苏,通州,32.06,121.05
1071,58269.0,江苏,启东,31.47,121.39
1072,58339.0,江苏,高淳,31.2,118.54
1073,58340.0,江苏,溧水,31.39,119.02
1074,58341.0,江苏,丹阳,31.59,119.36
1075,58342.0,江苏,金坛,31.43,119.33
1076,58344.0,江苏,句容,31.58,119.12
1077,58345.0,江苏,溧阳,31.26,119.29
1078,58346.0,江苏,宜兴,31.2,119.49
1079,58349.0,江苏,苏州,31.25,120.34
1080,58351.0,江苏,江阴,31.54,120.18
1081,58352.0,江苏,常熟,31.39,120.46
1082,58353.0,江苏,张家港,31.52,120.34
1083,58354.0,江苏,无锡,31.37,120.21
1084,58356.0,江苏,昆山,31.24,121.0
1085,58358.0,江苏,东山,31.04,120.26
1086,58359.0,江苏,吴江,31.08,120.37
1087,58360.0,江苏,海门,31.55,121.12
1088,58377.0,江苏,太仓,31.31,121.06
1089,57598.0,江西,修水,29.02,114.35
1090,57694.0,江西,铜鼓,28.32,114.23
1091,57696.0,江西,宜丰,28.24,114.47
1092,57698.0,江西,万载,28.07,114.27
1093,57699.0,江西,上高,28.14,114.55
1094,57786.0,江西,萍乡,27.38,113.51
1095,57789.0,江西,莲花,27.08,113.57
1096,57792.0,江西,分宜,27.49,114.41
1097,57793.0,江西,宜春,27.48,114.23
1098,57796.0,江西,新余,27.5,114.53
1099,57798.0,江西,安福,27.24,114.36
1100,57799.0,江西,吉安县,27.03,114.55
1101,57883.0,江西,夏坪,26.45,114.17
1102,57891.0,江西,永新,26.56,114.15
1103,57894.0,江西,井冈山,26.35,114.1
1104,57895.0,江西,万安,26.28,114.47
1105,57896.0,江西,遂川,26.2,114.3
1106,57899.0,江西,泰和,26.48,114.55
1107,57990.0,江西,崇义,25.42,114.18
1108,57991.0,江西,上犹,25.48,114.33
1109,57992.0,江西,南康,25.4,114.45
1110,57993.0,江西,赣县,25.52,115.0
1111,57994.0,江西,大余,25.24,114.21
1112,57995.0,江西,信丰,25.24,114.56
1113,58502.0,江西,九江,29.44,116.0
1114,58503.0,江西,瑞昌,29.42,115.4
1115,58506.0,江西,庐山,29.35,115.59
1116,58507.0,江西,武宁,29.15,115.07
1117,58508.0,江西,德安,29.2,115.46
1118,58509.0,江西,永修,29.03,115.49
1119,58510.0,江西,湖口,29.44,116.14
1120,58512.0,江西,彭泽,29.54,116.33
1121,58514.0,江西,星子,29.27,116.03
1122,58517.0,江西,都昌,29.16,116.12
1123,58519.0,江西,波阳,29.0,116.41
1124,58527.0,江西,景德镇,29.18,117.12
1125,58529.0,江西,婺源,29.16,117.51
1126,58600.0,江西,靖安,28.52,115.22
1127,58601.0,江西,奉新,28.42,115.23
1128,58602.0,江西,安义,28.51,115.33
1129,58605.0,江西,高安,28.25,115.23
1130,58606.0,江西,南昌,28.36,115.55
1131,58607.0,江西,南昌县,28.33,115.57
1132,58608.0,江西,樟树,28.04,115.33
1133,58609.0,江西,丰城,28.13,115.49
1134,58612.0,江西,余干,28.42,116.41
1135,58614.0,江西,进贤,28.23,116.16
1136,58615.0,江西,万年,28.41,117.05
1137,58616.0,江西,余江,28.12,116.49
1138,58618.0,江西,东乡,28.16,116.36
1139,58619.0,江西,临川,28.0,116.22
1140,58620.0,江西,乐平,29.01,117.06
1141,58622.0,江西,德兴,28.57,117.35
1142,58623.0,江西,上饶县,28.28,117.55
1143,58624.0,江西,弋阳,28.24,117.26
1144,58625.0,江西,横峰,28.25,117.36
1145,58626.0,江西,贵溪,28.19,117.15
1146,58627.0,江西,鹰潭,28.15,117.02
1147,58629.0,江西,铅山,28.17,117.42
1148,58634.0,江西,玉山,28.41,118.15
1149,58635.0,江西,广丰,28.26,118.12
1150,58637.0,江西,上饶,28.27,117.59
1151,58693.0,江西,新建,28.42,115.5
1152,58701.0,江西,新干,27.46,115.24
1153,58704.0,江西,峡江,27.37,115.21
1154,58705.0,江西,永丰,27.2,115.25
1155,58706.0,江西,乐安,27.26,115.5
1156,58707.0,江西,吉水,27.13,115.08
1157,58710.0,江西,崇仁,27.46,116.03
1158,58712.0,江西,金溪,27.55,116.47
1159,58713.0,江西,资溪,27.43,117.04
1160,58714.0,江西,宜黄,27.33,116.14
1161,58715.0,江西,南城,27.35,116.39
1162,58718.0,江西,南丰,27.13,116.32
1163,58719.0,江西,黎川,27.18,116.56
1164,58804.0,江西,兴国,26.21,115.21
1165,58806.0,江西,宁都,26.29,116.01
1166,58813.0,江西,广昌,26.51,116.2
1167,58814.0,江西,石城,26.21,116.21
1168,58903.0,江西,瑞金,25.54,116.02
1169,58905.0,江西,于都,25.58,115.25
1170,58906.0,江西,会昌,25.36,115.48
1171,58907.0,江西,安远,25.09,115.24
1172,59091.0,江西,全南,24.45,114.31
1173,59092.0,江西,龙南,24.55,114.49
1174,59093.0,江西,定南,24.47,115.02
1175,59102.0,江西,寻乌,24.57,115.39
1176,58524.0,江西,浮梁,29.22,117.13
1177,57794.0,江西,芦溪,27.38,114.01
1178,57783.0,江西,上栗,27.53,113.49
1179,58505.0,江西,九江县,29.37,115.54
1180,54236.0,辽宁,彰武,42.23,122.33
1181,54243.0,辽宁,昌图,42.47,124.07
1182,54244.0,辽宁,康平,42.45,123.2
1183,54245.0,辽宁,法库,42.3,123.24
1184,54248.0,辽宁,沈北新区,42.02,123.32
1185,54249.0,辽宁,铁岭,42.18,123.52
1186,54252.0,辽宁,西丰,42.44,124.45
1187,54254.0,辽宁,开原,42.32,124.03
1188,54259.0,辽宁,清原,42.04,124.52
1189,54321.0,辽宁,建平镇,41.52,119.38
1190,54323.0,辽宁,北票,41.49,120.47
1191,54324.0,辽宁,朝阳,41.33,120.26
1192,54325.0,辽宁,羊山,41.11,120.21
1193,54326.0,辽宁,建平县,41.25,119.37
1194,54327.0,辽宁,凌源,41.14,119.21
1195,54328.0,辽宁,喀左,41.05,119.43
1196,54332.0,辽宁,辽中,41.31,122.43
1197,54333.0,辽宁,新民,41.58,122.51
1198,54336.0,辽宁,台安,41.25,122.25
1199,54338.0,辽宁,盘山,41.17,121.57
1200,54339.0,辽宁,鞍山,41.05,123.0
1201,54340.0,辽宁,苏家屯,41.4,123.19
1202,54342.0,辽宁,沈阳,41.44,123.31
1203,54345.0,辽宁,辽阳县,41.12,123.04
1204,54346.0,辽宁,本溪,41.19,123.47
1205,54347.0,辽宁,辽阳,41.14,123.1
1206,54348.0,辽宁,灯塔,41.25,123.2
1207,54351.0,辽宁,抚顺,41.55,124.05
1208,54353.0,辽宁,新宾,41.44,125.03
1209,54452.0,辽宁,建昌,40.48,119.49
1210,54453.0,辽宁,连山区,40.47,120.53
1211,54454.0,辽宁,绥中,40.2,120.18
1212,54455.0,辽宁,兴城,40.37,120.39
1213,54470.0,辽宁,大洼,41.01,122.04
1214,54471.0,辽宁,营口,40.39,122.1
1215,54474.0,辽宁,盖州,40.25,122.21
1216,54475.0,辽宁,大石桥,40.37,122.29
1217,54476.0,辽宁,熊岳,40.1,122.09
1218,54483.0,辽宁,草河口,40.53,123.54
1219,54486.0,辽宁,岫岩,40.17,123.17
1220,54493.0,辽宁,宽甸,40.43,124.47
1221,54494.0,辽宁,凤城,40.28,124.04
1222,54497.0,辽宁,丹东,40.03,124.2
1223,54563.0,辽宁,瓦房店,39.38,122.01
1224,54568.0,辽宁,金州,39.04,121.45
1225,54569.0,辽宁,普兰店,39.25,121.57
1226,54575.0,辽宁,皮口,39.25,122.22
1227,54579.0,辽宁,长海,39.16,122.35
1228,54584.0,辽宁,庄河,39.43,122.57
1229,54590.0,辽宁,东港,39.53,124.1
1230,54662.0,辽宁,大连,38.54,121.38
1231,54565.0,辽宁,长兴岛,39.36,121.28
1232,50425.0,内蒙古,额尔古纳市,50.15,120.11
1233,50431.0,内蒙古,根河市,50.47,121.31
1234,50434.0,内蒙古,图里河,50.29,121.41
1235,50445.0,内蒙古,鄂伦春自治旗,50.35,123.44
1236,50514.0,内蒙古,满洲里,49.35,117.19
1237,50524.0,内蒙古,陈巴尔虎旗,49.19,119.26
1238,50525.0,内蒙古,鄂温克族自治旗,49.09,119.45
1239,50526.0,内蒙古,牙克石市,49.17,120.42
1240,50527.0,内蒙古,海拉尔,49.15,119.42
1241,50548.0,内蒙古,小二沟,49.12,123.43
1242,50603.0,内蒙古,新巴尔虎右旗,48.4,116.49
1243,50618.0,内蒙古,新巴尔虎左旗,48.13,118.16
1244,50639.0,内蒙古,扎兰屯,48.0,122.44
1245,50645.0,内蒙古,莫力达瓦达斡尔族自治旗,48.29,124.29
1246,50647.0,内蒙古,阿荣旗,48.08,123.29
1247,50727.0,内蒙古,阿尔山,47.1,119.56
1248,50834.0,内蒙古,索伦,46.36,121.13
1249,50913.0,内蒙古,乌拉盖,45.43,118.5
1250,50915.0,内蒙古,东乌珠穆沁,45.31,116.58
1251,50924.0,内蒙古,霍林郭勒,45.32,119.4
1252,50928.0,内蒙古,巴雅尔吐胡硕,45.04,120.2
1253,50934.0,内蒙古,突泉,45.23,121.35
1254,50937.0,内蒙古,尔沁右翼中,45.04,121.29
1255,53068.0,内蒙古,二连浩特,43.38,111.56
1256,53083.0,内蒙古,那仁宝力格,44.37,114.09
1257,53149.0,内蒙古,满都拉气象站,42.32,110.08
1258,53192.0,内蒙古,阿巴嘎旗,44.01,114.57
1259,53231.0,内蒙古,海力素,41.24,106.24
1260,53289.0,内蒙古,镶黄旗,42.14,113.5
1261,53336.0,内蒙古,乌拉特中旗,41.34,108.31
1262,53337.0,内蒙古,五原,41.06,108.16
1263,53348.0,内蒙古,大佘太,41.01,109.08
1264,53352.0,内蒙古,达茂旗气象局,41.42,110.26
1265,53357.0,内蒙古,固阳县气象局,41.02,110.03
1266,53362.0,内蒙古,四子王,41.32,111.41
1267,53367.0,内蒙古,希拉穆仁,41.19,111.14
1268,53368.0,内蒙古,武川县,41.05,111.28
1269,53378.0,内蒙古,察右中旗,41.17,112.37
1270,53384.0,内蒙古,察右后旗,41.27,113.11
1271,53385.0,内蒙古,商都,41.36,113.32
1272,53391.0,内蒙古,化德,41.54,114.0
1273,53419.0,内蒙古,磴口,40.2,107.0
1274,53420.0,内蒙古,杭锦后旗,40.51,107.07
1275,53433.0,内蒙古,乌拉特前旗,40.44,108.39
1276,53446.0,内蒙古,包头市,40.32,109.53
1277,53455.0,内蒙古,土右旗气象局,40.33,110.32
1278,53457.0,内蒙古,达拉特旗,40.24,110.02
1279,53463.0,内蒙古,呼和浩特,40.51,111.34
1280,53464.0,内蒙古,土默特左旗,40.43,111.1
1281,53466.0,内蒙古,呼和浩特郊区站,40.45,111.42
1282,53467.0,内蒙古,托克托县,40.16,111.11
1283,53469.0,内蒙古,和林格尔县,40.24,111.49
1284,53472.0,内蒙古,卓资,40.52,112.34
1285,53475.0,内蒙古,凉城,40.31,112.28
1286,53480.0,内蒙古,集宁,41.02,113.04
1287,53481.0,内蒙古,察右前旗,40.48,113.13
1288,53483.0,内蒙古,兴和,40.52,113.5
1289,53484.0,内蒙古,丰镇,40.27,113.09
1290,53512.0,内蒙古,乌海,39.48,106.48
1291,53513.0,内蒙古,临河,40.44,107.22
1292,53522.0,内蒙古,伊克乌素,40.03,107.5
1293,53529.0,内蒙古,鄂托克旗,39.05,107.58
1294,53533.0,内蒙古,杭锦旗,39.49,108.43
1295,53543.0,内蒙古,东胜,39.5,109.59
1296,53545.0,内蒙古,伊金霍洛旗,39.34,109.43
1297,53553.0,内蒙古,准格尔旗,39.52,111.13
1298,53562.0,内蒙古,清水河县,39.55,111.4
1299,53644.0,内蒙古,乌审旗,38.36,108.5
1300,53730.0,内蒙古,鄂托克前旗,38.11,107.29
1301,53732.0,内蒙古,河南,37.51,108.43
1302,54012.0,内蒙古,西乌珠穆沁,44.35,117.36
1303,54024.0,内蒙古,富河,44.27,119.18
1304,54026.0,内蒙古,扎鲁特,44.34,120.54
1305,54027.0,内蒙古,巴林左旗,43.59,119.24
1306,54031.0,内蒙古,高力板,44.54,121.49
1307,54039.0,内蒙古,舍伯吐,44.02,122.01
1308,54047.0,内蒙古,科左中旗,44.08,123.17
1309,54102.0,内蒙古,锡林浩特,43.57,116.07
1310,54113.0,内蒙古,巴林右旗,43.32,118.39
1311,54115.0,内蒙古,林西县,43.38,118.02
1312,54117.0,内蒙古,克什克腾旗,43.15,117.32
1313,54122.0,内蒙古,阿鲁科尔沁旗,43.53,120.03
1314,54132.0,内蒙古,青龙山,42.24,121.04
1315,54134.0,内蒙古,开鲁,43.36,121.17
1316,54135.0,内蒙古,通辽,43.36,122.16
1317,54204.0,内蒙古,正镶白旗,42.18,115.0
1318,54205.0,内蒙古,正蓝旗,42.14,116.0
1319,54208.0,内蒙古,多伦县,42.11,116.28
1320,54213.0,内蒙古,翁牛特旗,42.56,119.01
1321,54214.0,内蒙古,岗子,42.35,118.25
1322,54218.0,内蒙古,赤峰,42.18,118.5
1323,54223.0,内蒙古,奈曼,42.51,120.39
1324,54225.0,内蒙古,敖汉旗,42.18,119.57
1325,54226.0,内蒙古,宝国吐,42.2,120.42
1326,54231.0,内蒙古,科左后旗,42.58,122.21
1327,54234.0,内蒙古,库伦,42.44,121.45
1328,54305.0,内蒙古,太仆寺旗,41.53,115.16
1329,54313.0,内蒙古,喀喇沁旗,41.56,118.42
1330,54316.0,内蒙古,八里罕,41.31,118.45
1331,54320.0,内蒙古,宁城县,41.36,119.18
1332,53517.0,宁夏,石炭井,39.16,106.2
1333,53518.0,宁夏,石嘴山,39.02,106.21
1334,53519.0,宁夏,惠农,39.13,106.46
1335,53603.0,宁夏,沙湖,38.5,106.22
1336,53610.0,宁夏,贺兰,38.34,106.21
1337,53611.0,宁夏,平罗,38.53,106.33
1338,53612.0,宁夏,吴忠,37.59,106.11
1339,53614.0,宁夏,银川,38.28,106.12
1340,53615.0,宁夏,陶乐,38.48,106.42
1341,53617.0,宁夏,青铜峡,38.02,106.05
1342,53618.0,宁夏,永宁,38.17,106.15
1343,53619.0,宁夏,灵武,38.07,106.18
1344,53704.0,宁夏,中卫,37.32,105.11
1345,53705.0,宁夏,中宁,37.29,105.41
1346,53707.0,宁夏,兴仁,36.56,105.15
1347,53723.0,宁夏,盐池,37.48,107.23
1348,53727.0,宁夏,麻黄山,37.1,107.07
1349,53806.0,宁夏,海原,36.34,105.39
1350,53810.0,宁夏,同心,36.58,105.54
1351,53817.0,宁夏,固原,36.0,106.16
1352,53881.0,宁夏,韦州,37.17,106.29
1353,53903.0,宁夏,西吉,35.58,105.43
1354,53910.0,宁夏,六盘山,35.4,106.12
1355,53914.0,宁夏,隆德,35.37,106.07
1356,53916.0,宁夏,泾源,35.3,106.19
1357,52602.0,青海,冷湖,38.45,93.2
1358,52707.0,青海,小灶火,36.48,93.41
1359,52818.0,青海,格尔木,36.25,94.55
1360,52825.0,青海,诺木洪,36.26,96.26
1361,52836.0,青海,都兰,36.18,98.06
1362,52854.0,青海,青海湖151,36.35,100.29
1363,52856.0,青海,共和,36.16,100.37
1364,52863.0,青海,互助,36.49,101.57
1365,52866.0,青海,西宁,36.44,101.45
1366,52868.0,青海,贵德,36.01,101.22
1367,52869.0,青海,湟中,36.3,101.35
1368,52875.0,青海,平安,36.3,102.06
1369,52876.0,青海,民和,36.2,102.5
1370,52877.0,青海,化隆,36.06,102.15
1371,52908.0,青海,五道梁,35.13,93.05
1372,52941.0,青海,沙珠玉,36.16,100.16
1373,52943.0,青海,兴海,35.35,99.59
1374,52955.0,青海,贵南,35.35,100.44
1375,52957.0,青海,同德,35.15,100.36
1376,52963.0,青海,尖扎,35.56,102.01
1377,52968.0,青海,泽库,35.02,101.28
1378,52972.0,青海,循化,35.51,102.27
1379,52974.0,青海,同仁,35.31,102.01
1380,56004.0,青海,沱沱河,34.13,92.26
1381,56016.0,青海,治多,33.51,95.37
1382,56018.0,青海,杂多,32.53,95.17
1383,56021.0,青海,曲麻莱,34.07,95.48
1384,56029.0,青海,玉树,33.0,96.58
1385,56033.0,青海,玛多,34.55,98.13
1386,56034.0,青海,清水河,33.48,97.08
1387,56043.0,青海,玛沁,34.29,100.14
1388,56045.0,青海,甘德,33.58,99.54
1389,56046.0,青海,达日,33.45,99.39
1390,56065.0,青海,河南,34.44,101.36
1391,56067.0,青海,久治,33.26,101.29
1392,56125.0,青海,囊谦,32.12,96.28
1393,56151.0,青海,班玛,32.56,100.45
1394,54709.0,山东,武城,37.13,116.04
1395,54712.0,山东,临邑,37.12,116.49
1396,54714.0,山东,德州,37.27,116.2
1397,54715.0,山东,陵县,37.19,116.34
1398,54716.0,山东,宁津,37.4,116.48
1399,54722.0,山东,无棣,37.45,117.38
1400,54723.0,山东,阳信,37.39,117.34
1401,54724.0,山东,商河,37.19,117.08
1402,54725.0,山东,惠民,37.3,117.32
1403,54726.0,山东,乐陵,37.42,117.11
1404,54727.0,山东,章丘,36.41,117.33
1405,54728.0,山东,庆云,37.46,117.23
1406,54729.0,山东,高青,37.1,117.52
1407,54734.0,山东,滨州,37.21,118.0
1408,54736.0,山东,东营,37.26,118.4
1409,54744.0,山东,垦利,37.35,118.33
1410,54749.0,山东,莱州,37.11,119.57
1411,54751.0,山东,长岛,37.56,120.44
1412,54752.0,山东,蓬莱,37.48,120.46
1413,54753.0,山东,龙口,37.38,120.2
1414,54755.0,山东,招远,37.2,120.23
1415,54759.0,山东,栖霞,37.19,120.51
1416,54764.0,山东,福山,37.29,121.14
1417,54765.0,山东,烟台,37.29,121.26
1418,54776.0,山东,成山头,37.24,122.42
1419,54777.0,山东,文登,37.12,122.04
1420,54802.0,山东,临清,36.49,115.44
1421,54806.0,山东,聊城,36.25,115.58
1422,54807.0,山东,阳谷,36.09,115.46
1423,54808.0,山东,莘县,36.14,115.38
1424,54812.0,山东,齐河,36.47,116.45
1425,54814.0,山东,茌平,36.32,116.15
1426,54815.0,山东,东阿,36.23,116.16
1427,54816.0,山东,长清,36.31,116.48
1428,54818.0,山东,平阴,36.15,116.25
1429,54819.0,山东,肥城,36.11,116.48
1430,54821.0,山东,济阳,37.0,117.12
1431,54822.0,山东,邹平,36.52,117.44
1432,54823.0,山东,济南,36.36,117.0
1433,54824.0,山东,淄川,36.38,117.57
1434,54825.0,山东,博山,36.31,117.51
1435,54826.0,山东,泰山,36.15,117.06
1436,54827.0,山东,泰安,36.1,117.09
1437,54828.0,山东,莱芜,36.14,117.41
1438,54829.0,山东,周村,36.46,117.52
1439,54830.0,山东,淄博,36.49,117.56
1440,54831.0,山东,青州,36.39,118.3
1441,54832.0,山东,寿光,36.53,118.44
1442,54833.0,山东,桓台,36.58,118.05
1443,54834.0,山东,临淄,36.52,118.17
1444,54835.0,山东,临朐,36.3,118.33
1445,54836.0,山东,沂源,36.11,118.1
1446,54837.0,山东,昌乐,36.41,118.5
1447,54841.0,山东,昌邑,36.52,119.25
1448,54842.0,山东,平度,36.47,120.0
1449,54843.0,山东,潍坊,36.45,119.12
1450,54844.0,山东,安丘,36.25,119.11
1451,54846.0,山东,高密,36.23,119.44
1452,54848.0,山东,诸城,35.59,119.25
1453,54849.0,山东,胶州,36.13,120.02
1454,54851.0,山东,莱西,36.54,120.34
1455,54852.0,山东,莱阳,36.58,120.44
1456,54853.0,山东,崂山,36.1,120.25
1457,54855.0,山东,即墨,36.23,120.28
1458,54857.0,山东,青岛,36.04,120.2
1459,54861.0,山东,乳山,36.56,121.32
1460,54863.0,山东,海阳,36.47,121.11
1461,54871.0,山东,石岛,36.56,122.29
1462,54904.0,山东,鄄城,35.35,115.31
1463,54905.0,山东,郓城,35.35,115.56
1464,54906.0,山东,菏泽,35.15,115.25
1465,54907.0,山东,鱼台,34.59,116.39
1466,54908.0,山东,东明,35.16,115.06
1467,54909.0,山东,定陶,35.05,115.31
1468,54910.0,山东,梁山,35.49,116.03
1469,54911.0,山东,东平,35.56,116.24
1470,54912.0,山东,汶上,35.46,116.3
1471,54913.0,山东,宁阳,35.45,116.49
1472,54914.0,山东,巨野,35.25,116.05
1473,54915.0,山东,济宁,35.26,116.36
1474,54916.0,山东,兖州,35.34,116.51
1475,54917.0,山东,金乡,35.06,116.19
1476,54918.0,山东,曲阜,35.36,116.58
1477,54919.0,山东,邹城,35.23,116.59
1478,54920.0,山东,泗水,35.39,117.17
1479,54921.0,山东,嘉祥,35.25,116.2
1480,54922.0,山东,新泰,35.53,117.47
1481,54923.0,山东,蒙阴,35.43,117.56
1482,54925.0,山东,平邑,35.31,117.38
1483,54927.0,山东,滕州,35.06,117.12
1484,54929.0,山东,费县,35.16,117.58
1485,54932.0,山东,沂水,35.46,118.39
1486,54935.0,山东,沂南,35.32,118.26
1487,54936.0,山东,莒县,35.34,118.5
1488,54938.0,山东,临沂,35.03,118.24
1489,54939.0,山东,莒南,35.1,118.49
1490,54940.0,山东,五莲,35.45,119.12
1491,54943.0,山东,黄岛,35.53,120.0
1492,54945.0,山东,日照,35.26,119.32
1493,58002.0,山东,曹县,34.51,115.35
1494,58003.0,山东,成武,34.57,115.53
1495,58011.0,山东,单县,34.48,116.04
1496,58020.0,山东,微山,34.48,117.08
1497,58021.0,山东,薛城,34.47,117.17
1498,58022.0,山东,峄城,34.45,117.34
1499,58024.0,山东,枣庄,34.52,117.35
1500,58025.0,山东,台儿庄,34.34,117.44
1501,58030.0,山东,苍山,34.53,118.01
1502,58032.0,山东,临沭,34.56,118.39
1503,53478.0,山西,右玉,40.0,112.27
1504,53486.0,山西,阳高,40.22,113.46
1505,53487.0,山西,大同,40.05,113.25
1506,53488.0,山西,大同县,40.02,113.35
1507,53490.0,山西,天镇,40.26,114.03
1508,53564.0,山西,河曲,39.23,111.09
1509,53565.0,山西,偏关,39.26,111.3
1510,53573.0,山西,左云,40.0,112.42
1511,53574.0,山西,平鲁,39.31,112.16
1512,53575.0,山西,神池,39.06,112.12
1513,53576.0,山西,山阴,39.3,112.49
1514,53577.0,山西,宁武,39.0,112.18
1515,53578.0,山西,朔州,39.22,112.26
1516,53579.0,山西,代县,39.01,112.54
1517,53582.0,山西,浑源,39.43,113.4
1518,53584.0,山西,应县,39.34,113.1
1519,53585.0,山西,繁峙,39.1,113.16
1520,53588.0,山西,五台山,38.57,113.31
1521,53590.0,山西,广灵,39.45,114.16
1522,53594.0,山西,灵丘,39.27,114.11
1523,53659.0,山西,临县,37.58,111.0
1524,53660.0,山西,保德,39.01,111.05
1525,53662.0,山西,岢岚,38.43,111.35
1526,53663.0,山西,五寨,38.55,111.49
1527,53664.0,山西,兴县,38.28,111.08
1528,53665.0,山西,岚县,38.17,111.39
1529,53666.0,山西,静乐,38.21,111.56
1530,53669.0,山西,娄烦,38.05,111.48
1531,53673.0,山西,原平,38.44,112.43
1532,53674.0,山西,忻府区,38.24,112.42
1533,53676.0,山西,定襄,38.3,112.59
1534,53677.0,山西,尖草坪,37.56,112.29
1535,53678.0,山西,阳曲,38.04,112.39
1536,53679.0,山西,小店区,37.45,112.33
1537,53681.0,山西,五台县豆村,38.5,113.22
1538,53685.0,山西,盂县,38.04,113.25
1539,53687.0,山西,平定,37.47,113.38
1540,53753.0,山西,柳林,37.26,110.53
1541,53759.0,山西,石楼,36.59,110.5
1542,53760.0,山西,方山,37.53,111.14
1543,53763.0,山西,古交,37.55,112.1
1544,53764.0,山西,离石,37.3,111.06
1545,53767.0,山西,中阳,37.2,111.1
1546,53768.0,山西,孝义,37.09,111.45
1547,53769.0,山西,汾阳,37.15,111.47
1548,53770.0,山西,祁县,37.21,112.21
1549,53771.0,山西,文水,37.25,112.03
1550,53772.0,山西,太原,37.37,112.35
1551,53774.0,山西,清徐,37.35,112.22
1552,53775.0,山西,太谷,37.25,112.36
1553,53776.0,山西,榆次,37.41,112.46
1554,53777.0,山西,交城,37.32,112.09
1555,53778.0,山西,平遥,37.1,112.13
1556,53780.0,山西,寿阳,37.54,113.09
1557,53782.0,山西,阳泉,37.56,113.37
1558,53783.0,山西,昔阳,37.36,113.42
1559,53786.0,山西,左权,37.05,113.2
1560,53787.0,山西,榆社,37.04,112.59
1561,53788.0,山西,和顺,37.2,113.34
1562,53852.0,山西,永和,36.46,110.38
1563,53853.0,山西,隰县,36.42,110.57
1564,53856.0,山西,大宁,36.28,110.45
1565,53859.0,山西,吉县,36.06,110.4
1566,53860.0,山西,交口,36.59,111.1
1567,53861.0,山西,襄汾,35.53,111.23
1568,53862.0,山西,灵石,36.51,111.48
1569,53863.0,山西,介休,37.02,111.55
1570,53864.0,山西,蒲县,36.24,111.06
1571,53865.0,山西,汾西,36.39,111.33
1572,53866.0,山西,洪洞,36.14,111.4
1573,53868.0,山西,临汾,36.04,111.3
1574,53869.0,山西,霍州,36.35,111.42
1575,53871.0,山西,武乡,36.5,112.51
1576,53872.0,山西,沁县,36.46,112.41
1577,53873.0,山西,长子,36.06,112.52
1578,53874.0,山西,古县,36.15,111.54
1579,53875.0,山西,沁源,36.31,112.21
1580,53877.0,山西,安泽,36.1,112.15
1581,53878.0,山西,黎城,36.31,113.23
1582,53879.0,山西,屯留,36.19,112.53
1583,53880.0,山西,潞城,36.2,113.14
1584,53882.0,山西,长治,36.04,113.02
1585,53884.0,山西,襄垣,36.31,113.02
1586,53885.0,山西,壶关,36.07,113.12
1587,53888.0,山西,平顺,36.12,113.26
1588,53953.0,山西,乡宁,35.58,110.51
1589,53954.0,山西,稷山,35.37,110.58
1590,53956.0,山西,万荣,35.24,110.5
1591,53957.0,山西,河津,35.37,110.43
1592,53958.0,山西,临猗,35.1,110.47
1593,53959.0,山西,盐湖,35.03,111.03
1594,53961.0,山西,曲沃,35.39,111.29
1595,53962.0,山西,翼城,35.44,111.42
1596,53963.0,山西,侯马,35.39,111.22
1597,53964.0,山西,新绛,35.37,111.13
1598,53965.0,山西,绛县,35.31,111.34
1599,53966.0,山西,浮山,35.59,111.5
1600,53967.0,山西,闻喜,35.2,111.12
1601,53968.0,山西,垣曲,35.17,111.4
1602,53970.0,山西,沁水,35.42,112.12
1603,53973.0,山西,高平,35.46,112.57
1604,53975.0,山西,阳城,35.29,112.24
1605,53976.0,山西,晋城,35.3,112.52
1606,53981.0,山西,陵川,35.47,113.16
1607,57052.0,山西,永济,34.53,110.27
1608,57053.0,山西,芮城,34.42,110.43
1609,57060.0,山西,夏县,35.1,111.14
1610,57061.0,山西,平陆,34.5,111.12
1611,53567.0,陕西,府谷,39.01,111.0
1612,53646.0,陕西,榆林,38.16,109.47
1613,53651.0,陕西,神木,38.49,110.28
1614,53658.0,陕西,佳县,38.02,110.29
1615,53725.0,陕西,定边,37.35,107.35
1616,53735.0,陕西,靖边,37.37,108.48
1617,53738.0,陕西,吴旗,36.55,108.1
1618,53740.0,陕西,横山,37.56,109.14
1619,53748.0,陕西,子长,37.11,109.42
1620,53750.0,陕西,米脂,37.46,110.11
1621,53751.0,陕西,子洲,37.36,110.03
1622,53754.0,陕西,绥德,37.3,110.13
1623,53756.0,陕西,吴堡,37.31,110.43
1624,53757.0,陕西,清涧,37.07,110.07
1625,53832.0,陕西,志丹,36.46,108.46
1626,53841.0,陕西,安塞,36.53,109.19
1627,53848.0,陕西,甘泉,36.16,109.21
1628,53850.0,陕西,延川,36.53,110.11
1629,53854.0,陕西,延长,36.35,110.04
1630,53857.0,陕西,宜川,36.04,110.11
1631,53929.0,陕西,长武,35.12,107.48
1632,53931.0,陕西,富县,36.0,109.22
1633,53938.0,陕西,旬邑,35.1,108.18
1634,53941.0,陕西,白水,35.11,109.35
1635,53942.0,陕西,洛川,35.46,109.25
1636,53944.0,陕西,黄陵,35.34,109.15
1637,53945.0,陕西,宜君,35.26,109.04
1638,53946.0,陕西,黄龙,35.36,109.49
1639,53947.0,陕西,铜川,35.05,109.04
1640,53948.0,陕西,蒲城,34.57,109.35
1641,53949.0,陕西,澄城,35.11,109.55
1642,53950.0,陕西,合阳,35.14,110.09
1643,57003.0,陕西,陇县,34.54,106.5
1644,57016.0,陕西,宝鸡,34.21,107.08
1645,57020.0,陕西,宝鸡县,34.22,107.24
1646,57021.0,陕西,千阳,34.39,107.08
1647,57022.0,陕西,麟游,34.41,107.47
1648,57023.0,陕西,彬县,35.01,108.07
1649,57024.0,陕西,岐山,34.27,107.39
1650,57025.0,陕西,凤翔,34.31,107.23
1651,57026.0,陕西,扶风,34.22,107.53
1652,57027.0,陕西,眉县,34.16,107.44
1653,57028.0,陕西,太白,34.02,107.19
1654,57029.0,陕西,礼泉,34.3,108.29
1655,57030.0,陕西,永寿,34.42,108.09
1656,57031.0,陕西,淳化,34.49,108.33
1657,57033.0,陕西,泾阳,34.33,108.49
1658,57034.0,陕西,武功,34.15,108.13
1659,57035.0,陕西,乾县,34.33,108.14
1660,57037.0,陕西,耀县,34.56,108.59
1661,57038.0,陕西,兴平,34.17,108.27
1662,57041.0,陕西,三原,34.38,108.55
1663,57042.0,陕西,富平,34.47,109.11
1664,57043.0,陕西,大荔,34.48,109.58
1665,57045.0,陕西,渭南,34.31,109.29
1666,57046.0,陕西,华山,34.29,110.05
1667,57048.0,陕西,秦都,34.24,108.43
1668,57054.0,陕西,潼关,34.33,110.14
1669,57055.0,陕西,华阴,34.33,110.05
1670,57057.0,陕西,洛南,34.06,110.09
1671,57106.0,陕西,略阳,33.19,106.09
1672,57113.0,陕西,凤县,33.54,106.32
1673,57119.0,陕西,勉县,33.1,106.42
1674,57123.0,陕西,杨凌,34.17,108.04
1675,57124.0,陕西,留坝,33.38,106.56
1676,57127.0,陕西,汉中,33.04,107.02
1677,57128.0,陕西,城固,33.1,107.2
1678,57131.0,陕西,泾河,34.26,108.58
1679,57134.0,陕西,佛坪,33.31,107.59
1680,57137.0,陕西,宁陕,33.19,108.19
1681,57140.0,陕西,柞水,33.4,109.07
1682,57143.0,陕西,商县,33.52,109.58
1683,57144.0,陕西,镇安,33.26,109.09
1684,57153.0,陕西,丹凤,33.41,110.2
1685,57154.0,陕西,商南,33.32,110.54
1686,57155.0,陕西,山阳,33.33,109.52
1687,57211.0,陕西,宁强,32.5,106.15
1688,57213.0,陕西,南郑,33.0,106.56
1689,57231.0,陕西,紫阳,32.32,108.32
1690,57232.0,陕西,石泉,33.03,108.16
1691,57233.0,陕西,汉阴,32.54,108.3
1692,57238.0,陕西,镇巴,32.32,107.54
1693,57242.0,陕西,旬阳,32.51,109.22
1694,57245.0,陕西,安康,32.43,109.02
1695,57247.0,陕西,岚皋,32.19,108.54
1696,57248.0,陕西,平利,32.24,109.2
1697,57254.0,陕西,白河,32.49,110.07
1698,57343.0,陕西,镇坪,31.54,109.32
1699,58361.0,上海,闵行,31.06,121.22
1700,58362.0,上海,宝山,31.24,121.27
1701,58365.0,上海,嘉定,31.22,121.15
1702,58366.0,上海,崇明,31.4,121.3
1703,58367.0,上海,徐家汇,31.12,121.26
1704,58369.0,上海,南汇,31.03,121.47
1705,58370.0,上海,浦东,31.14,121.32
1706,58460.0,上海,金山,30.44,121.21
1707,58461.0,上海,青浦,31.08,121.07
1708,58462.0,上海,松江,31.02,121.14
1709,58463.0,上海,奉贤,30.53,121.3
1710,56038.0,四川,石渠,32.59,98.06
1711,56079.0,四川,若尔盖,33.35,102.58
1712,56097.0,四川,九寨沟,33.16,104.15
1713,56144.0,四川,德格,31.48,98.35
1714,56146.0,四川,甘孜,31.37,100.0
1715,56147.0,四川,白玉,31.13,98.5
1716,56152.0,四川,色达,32.17,100.2
1717,56158.0,四川,炉霍,31.24,100.4
1718,56164.0,四川,壤塘,32.16,100.59
1719,56167.0,四川,道孚,30.59,101.07
1720,56168.0,四川,金川,31.29,102.04
1721,56171.0,四川,阿坝,32.54,101.42
1722,56172.0,四川,马尔康,31.54,102.14
1723,56173.0,四川,红原,32.48,102.33
1724,56178.0,四川,小金,31.0,102.21
1725,56180.0,四川,茂县,31.41,103.51
1726,56181.0,四川,崇州,30.41,103.42
1727,56182.0,四川,松潘,32.4,103.36
1728,56183.0,四川,汶川,31.3,103.37
1729,56184.0,四川,理县,31.26,103.1
1730,56185.0,四川,黑水,32.05,102.59
1731,56186.0,四川,绵竹,31.2,104.12
1732,56187.0,四川,温江,30.45,103.52
1733,56188.0,四川,都江堰,31.0,103.4
1734,56189.0,四川,彭州,30.59,103.56
1735,56197.0,四川,什邡,31.09,104.1
1736,56198.0,四川,德阳,31.19,104.3
1737,56199.0,四川,中江,31.02,104.41
1738,56247.0,四川,巴塘,30.0,99.06
1739,56251.0,四川,新龙,30.56,100.19
1740,56257.0,四川,理塘,30.0,100.16
1741,56263.0,四川,丹巴,30.53,101.53
1742,56267.0,四川,雅江,30.02,101.01
1743,56272.0,四川,郫县,30.49,103.53
1744,56273.0,四川,宝兴,30.23,102.49
1745,56276.0,四川,新津,30.27,103.49
1746,56278.0,四川,天全,30.04,102.46
1747,56279.0,四川,芦山,30.09,102.56
1748,56280.0,四川,名山,30.05,103.07
1749,56281.0,四川,蒲江,30.11,103.3
1750,56284.0,四川,邛崃,30.27,103.26
1751,56285.0,四川,大邑,30.36,103.31
1752,56286.0,四川,龙泉驿,30.33,104.15
1753,56288.0,四川,双流,30.35,103.55
1754,56289.0,四川,彭山,30.12,103.52
1755,56290.0,四川,新都,30.47,104.11
1756,56296.0,四川,金堂,30.51,104.26
1757,56297.0,四川,仁寿,30.01,104.09
1758,56298.0,四川,资阳,30.08,104.36
1759,56357.0,四川,稻城,29.03,100.18
1760,56371.0,四川,泸定,29.55,102.14
1761,56373.0,四川,荥经,29.47,102.51
1762,56374.0,四川,康定,30.03,101.58
1763,56376.0,四川,汉源,29.21,102.38
1764,56378.0,四川,石棉,29.14,102.21
1765,56380.0,四川,洪雅,29.53,103.21
1766,56381.0,四川,丹棱,30.04,103.3
1767,56382.0,四川,夹江,29.44,103.36
1768,56383.0,四川,青神,29.5,103.52
1769,56384.0,四川,峨眉,29.36,103.29
1770,56385.0,四川,峨眉山,29.31,103.2
1771,56386.0,四川,乐山,29.34,103.45
1772,56387.0,四川,峨边,29.14,103.16
1773,56389.0,四川,犍为,29.12,103.57
1774,56390.0,四川,井研,29.4,104.04
1775,56391.0,四川,眉山,30.05,103.49
1776,56393.0,四川,资中,29.46,104.51
1777,56394.0,四川,荣县,29.27,104.26
1778,56395.0,四川,威远,29.31,104.4
1779,56396.0,四川,自贡,29.21,104.46
1780,56399.0,四川,富顺,29.11,104.59
1781,56441.0,四川,得荣,28.43,99.17
1782,56443.0,四川,乡城,28.56,99.48
1783,56459.0,四川,木里,27.56,101.16
1784,56462.0,四川,九龙,29.0,101.3
1785,56473.0,四川,甘洛,28.57,102.46
1786,56474.0,四川,冕宁,28.33,102.1
1787,56475.0,四川,越西,28.39,102.31
1788,56478.0,四川,喜德,28.18,102.26
1789,56479.0,四川,昭觉,28.0,102.51
1790,56480.0,四川,马边,28.49,103.32
1791,56485.0,四川,雷波,28.16,103.35
1792,56487.0,四川,美姑,28.2,103.08
1793,56490.0,四川,沐川,28.57,103.54
1794,56491.0,四川,宜宾县,28.42,104.34
1795,56492.0,四川,宜宾,28.48,104.36
1796,56493.0,四川,南溪,28.51,104.58
1797,56494.0,四川,屏山,28.39,104.09
1798,56496.0,四川,兴文,28.19,105.14
1799,56498.0,四川,筠连,28.09,104.3
1800,56499.0,四川,珙县,28.23,104.47
1801,56565.0,四川,盐源,27.26,101.31
1802,56569.0,四川,德昌,27.25,102.11
1803,56571.0,四川,西昌,27.54,102.16
1804,56575.0,四川,普格,27.22,102.33
1805,56578.0,四川,宁南,27.04,102.45
1806,56580.0,四川,布拖,27.43,102.48
1807,56584.0,四川,金阳,27.42,103.15
1808,56592.0,四川,高县,28.26,104.31
1809,56593.0,四川,长宁,28.35,104.55
1810,56665.0,四川,盐边,26.41,101.51
1811,56666.0,四川,攀枝花,26.35,101.43
1812,56670.0,四川,米易,26.55,102.07
1813,56671.0,四川,会理,26.39,102.15
1814,56674.0,四川,仁和,26.3,101.44
1815,56675.0,四川,会东,26.39,102.35
1816,57204.0,四川,青川,32.34,105.13
1817,57206.0,四川,广元,32.26,105.51
1818,57208.0,四川,剑阁,32.17,105.31
1819,57216.0,四川,南江,32.21,106.5
1820,57217.0,四川,旺苍,32.14,106.17
1821,57237.0,四川,万源,32.04,108.02
1822,57303.0,四川,苍溪,31.44,105.55
1823,57306.0,四川,阆中,31.35,105.58
1824,57307.0,四川,三台,31.06,105.05
1825,57308.0,四川,盐亭,31.13,105.23
1826,57309.0,四川,西充,30.59,105.53
1827,57313.0,四川,巴中,31.52,106.46
1828,57314.0,四川,南部,31.21,106.04
1829,57315.0,四川,仪陇,31.32,106.24
1830,57317.0,四川,蓬安,31.02,106.25
1831,57318.0,四川,营山,31.04,106.33
1832,57320.0,四川,通江,31.56,107.13
1833,57324.0,四川,平昌,31.35,107.05
1834,57326.0,四川,宣汉,31.22,107.43
1835,57328.0,四川,达川,31.12,107.3
1836,57329.0,四川,开江,31.06,107.51
1837,57401.0,四川,射洪,30.52,105.22
1838,57402.0,四川,蓬溪,30.46,105.42
1839,57405.0,四川,遂宁,30.3,105.33
1840,57407.0,四川,乐至,30.17,105.02
1841,57408.0,四川,安岳,30.07,105.21
1842,57411.0,四川,高坪,30.47,106.06
1843,57413.0,四川,渠县,30.51,106.58
1844,57414.0,四川,岳池,30.31,106.27
1845,57415.0,四川,广安,30.32,106.38
1846,57416.0,四川,邻水,30.2,106.56
1847,57417.0,四川,武胜,30.21,106.17
1848,57420.0,四川,大竹,30.45,107.11
1849,57503.0,四川,东兴区,29.37,105.07
1850,57507.0,四川,隆昌,29.2,105.18
1851,57508.0,四川,泸县,29.09,105.22
1852,57600.0,四川,江安,28.43,105.04
1853,57603.0,四川,合江,28.49,105.5
1854,57608.0,四川,叙永,28.1,105.26
1855,54428.0,天津,蓟县,40.02,117.24
1856,54523.0,天津,武清,39.23,117.01
1857,54525.0,天津,宝坻,39.44,117.17
1858,54526.0,天津,东丽区,39.05,117.2
1859,54527.0,天津,天津,39.05,117.03
1860,54528.0,天津,北辰区,39.14,117.08
1861,54529.0,天津,宁河,39.21,117.49
1862,54530.0,天津,汉沽区,39.14,117.46
1863,54619.0,天津,静海,38.55,116.55
1864,54622.0,天津,津南区,38.59,117.22
1865,54623.0,天津,塘沽,39.03,117.43
1866,54645.0,天津,大港,38.51,117.28
1867,55228.0,西藏,狮泉河,32.3,80.05
1868,55248.0,西藏,改则,32.09,84.25
1869,55299.0,西藏,那曲,31.29,92.04
1870,55437.0,西藏,普兰,30.17,81.15
1871,55493.0,西藏,当雄,30.29,91.06
1872,55569.0,西藏,拉孜,29.05,87.36
1873,55572.0,西藏,南木林,29.41,89.06
1874,55593.0,西藏,墨竹工卡,29.51,91.44
1875,55597.0,西藏,琼结,29.02,91.41
1876,55598.0,西藏,泽当,29.16,91.46
1877,55655.0,西藏,聂拉木,28.11,85.58
1878,55664.0,西藏,定日,28.38,87.05
1879,55680.0,西藏,江孜,28.55,89.36
1880,56116.0,西藏,丁青,31.25,95.36
1881,56128.0,西藏,类乌齐,31.13,96.36
1882,56137.0,西藏,昌都,31.09,97.1
1883,56223.0,西藏,洛隆,30.45,95.5
1884,56227.0,西藏,波密,29.52,95.46
1885,56228.0,西藏,八宿,30.03,96.55
1886,56312.0,西藏,林芝,29.4,94.2
1887,56317.0,西藏,米林,29.13,94.13
1888,56331.0,西藏,左贡,29.4,97.5
1889,56434.0,西藏,察隅,28.39,97.28
1890,51053.0,新疆,哈巴河,48.03,86.24
1891,51058.0,新疆,阿克达拉,47.06,87.58
1892,51060.0,新疆,布尔津,47.42,86.52
1893,51068.0,新疆,福海,47.07,87.28
1894,51076.0,新疆,阿勒泰,47.44,88.05
1895,51087.0,新疆,富蕴,46.59,89.31
1896,51133.0,新疆,塔城,46.44,83.0
1897,51137.0,新疆,裕民,46.12,82.56
1898,51145.0,新疆,额敏,46.33,83.39
1899,51156.0,新疆,和布克赛尔,46.47,85.43
1900,51232.0,新疆,阿拉山口,45.11,82.34
1901,51238.0,新疆,博乐,44.54,82.04
1902,51241.0,新疆,托里,45.56,83.36
1903,51243.0,新疆,克拉玛依,45.37,84.51
1904,51334.0,新疆,精河,44.34,82.49
1905,51357.0,新疆,沙湾,44.2,85.37
1906,51359.0,新疆,玛纳斯,44.19,86.12
1907,51367.0,新疆,呼图壁,44.1,86.51
1908,51368.0,新疆,昌吉,44.07,87.19
1909,51369.0,新疆,米泉,43.58,87.39
1910,51377.0,新疆,阜康,44.1,87.55
1911,51378.0,新疆,吉木萨尔,44.01,89.1
1912,51468.0,新疆,天山大西沟,43.06,86.5
1913,51469.0,新疆,鲁木齐牧试,43.27,87.11
1914,51470.0,新疆,天池,43.53,88.07
1915,51477.0,新疆,达坂城,43.21,88.19
1916,51482.0,新疆,木垒,43.5,90.17
1917,51526.0,新疆,库米什,42.14,88.13
1918,51542.0,新疆,巴音布鲁克,43.02,84.09
1919,51567.0,新疆,焉耆,42.05,86.34
1920,51571.0,新疆,托克逊,42.48,88.38
1921,51572.0,新疆,吐鲁番东坎,42.5,89.15
1922,51573.0,新疆,吐鲁番,42.56,89.12
1923,51627.0,新疆,乌什,41.13,79.14
1924,51628.0,新疆,阿克苏,41.1,80.14
1925,51636.0,新疆,新和,41.33,82.39
1926,51639.0,新疆,沙雅,41.14,82.47
1927,51656.0,新疆,库尔勒,41.45,86.08
1928,51704.0,新疆,阿图什,39.43,76.1
1929,51705.0,新疆,乌恰,39.43,75.15
1930,51707.0,新疆,伽师,39.3,76.44
1931,51709.0,新疆,喀什,39.29,75.45
1932,51717.0,新疆,岳普湖,39.15,76.47
1933,51720.0,新疆,柯坪,40.3,79.03
1934,51722.0,新疆,阿瓦提,40.39,80.24
1935,51730.0,新疆,阿拉尔,40.33,81.16
1936,51747.0,新疆,塔中,39.0,83.4
1937,51765.0,新疆,铁干里克,40.38,87.42
1938,51802.0,新疆,英吉沙,38.56,76.1
1939,51810.0,新疆,麦盖提,38.55,77.38
1940,51811.0,新疆,莎车,38.26,77.16
1941,51814.0,新疆,叶城,37.55,77.24
1942,51815.0,新疆,泽普,38.12,77.16
1943,51818.0,新疆,皮山,37.37,78.17
1944,51826.0,新疆,策勒,37.01,80.48
1945,51827.0,新疆,墨玉,37.1,79.38
1946,51828.0,新疆,和田,37.08,79.56
1947,51829.0,新疆,洛浦,37.05,80.1
1948,51839.0,新疆,民丰,37.04,82.43
1949,51855.0,新疆,且末,38.09,85.33
1950,51931.0,新疆,于田,36.51,81.39
1951,52101.0,新疆,巴里坤,43.36,93.03
1952,52112.0,新疆,淖毛湖,43.45,94.59
1953,52118.0,新疆,伊吾,43.16,94.42
1954,52203.0,新疆,哈密,42.49,93.31
1955,52313.0,新疆,红柳河,41.32,94.4
1956,56444.0,云南,德钦,28.29,98.55
1957,56483.0,云南,绥江,28.35,103.57
1958,56489.0,云南,永善,28.14,103.38
1959,56497.0,云南,盐津,28.06,104.14
1960,56533.0,云南,贡山,27.45,98.4
1961,56543.0,云南,香格里拉,27.5,99.42
1962,56548.0,云南,维西,27.1,99.17
1963,56567.0,云南,宁蒗,27.18,100.51
1964,56582.0,云南,大关,27.45,103.54
1965,56585.0,云南,鲁甸,27.11,103.32
1966,56586.0,云南,昭通,27.21,103.43
1967,56594.0,云南,彝良,27.38,104.03
1968,56595.0,云南,镇雄,27.25,104.52
1969,56596.0,云南,威信,27.51,105.03
1970,56641.0,云南,福贡,26.54,98.52
1971,56643.0,云南,六库,25.52,98.51
1972,56645.0,云南,兰坪,26.25,99.25
1973,56646.0,云南,剑川,26.32,99.55
1974,56649.0,云南,洱源,26.06,99.58
1975,56651.0,云南,丽江,26.51,100.13
1976,56652.0,云南,永胜,26.41,100.45
1977,56654.0,云南,鹤庆,26.35,100.11
1978,56664.0,云南,华坪,26.38,101.16
1979,56669.0,云南,永仁,26.03,101.4
1980,56673.0,云南,巧家,26.55,102.55
1981,56684.0,云南,会泽,26.24,103.15
1982,56688.0,云南,东川,26.06,103.1
1983,56697.0,云南,宣威,26.13,104.05
1984,56739.0,云南,腾冲,24.59,98.3
1985,56742.0,云南,云龙,25.54,99.22
1986,56745.0,云南,漾濞,25.41,99.57
1987,56746.0,云南,永平,25.28,99.31
1988,56748.0,云南,保山,25.07,99.11
1989,56751.0,云南,大理,25.42,100.11
1990,56752.0,云南,宾川,25.5,100.34
1991,56755.0,云南,弥渡,25.21,100.29
1992,56757.0,云南,巍山,25.16,100.17
1993,56761.0,云南,大姚,25.43,101.19
1994,56764.0,云南,姚安,25.32,101.14
1995,56766.0,云南,牟定,25.18,101.31
1996,56767.0,云南,南华,25.11,101.17
1997,56772.0,云南,富民,25.14,102.3
1998,56774.0,云南,武定,25.32,102.25
1999,56777.0,云南,禄丰,25.09,102.04
2000,56778.0,云南,昆明,25.0,102.39
2001,56782.0,云南,马龙,25.25,103.33
2002,56783.0,云南,曲靖,25.3,103.48
2003,56785.0,云南,嵩明,25.21,103.05
2004,56790.0,云南,富源,25.41,104.15
2005,56835.0,云南,陇川,24.04,97.49
2006,56836.0,云南,盈江,24.42,97.57
2007,56839.0,云南,镇康,23.46,98.49
2008,56840.0,云南,粱河,24.49,98.18
2009,56841.0,云南,龙陵,24.36,98.41
2010,56842.0,云南,施甸,24.44,99.11
2011,56843.0,云南,昌宁,24.5,99.37
2012,56844.0,云南,芒市,24.26,98.35
2013,56846.0,云南,凤庆,24.35,99.56
2014,56849.0,云南,永德,24.02,99.14
2015,56851.0,云南,南涧,25.02,100.31
2016,56854.0,云南,云县,24.27,100.08
2017,56856.0,云南,景东,24.28,100.52
2018,56862.0,云南,双柏,24.41,101.36
2019,56863.0,云南,安宁,24.56,102.29
2020,56867.0,云南,镇沅,23.59,101.07
2021,56869.0,云南,新平,24.04,101.58
2022,56870.0,云南,易门,24.39,102.11
2023,56871.0,云南,晋宁,24.39,102.36
2024,56873.0,云南,澄江,24.41,102.55
2025,56875.0,云南,玉溪,24.2,102.33
2026,56876.0,云南,江川,24.17,102.46
2027,56878.0,云南,通海,24.08,102.45
2028,56879.0,云南,华宁,24.11,102.55
2029,56880.0,云南,宜良,24.55,103.1
2030,56881.0,云南,石林,24.45,103.16
2031,56882.0,云南,呈贡,24.53,102.48
2032,56883.0,云南,师宗,24.49,103.59
2033,56885.0,云南,弥勒,24.24,103.27
2034,56886.0,云南,泸西,24.32,103.46
2035,56889.0,云南,丘北,24.03,104.1
2036,56891.0,云南,罗平,24.59,104.19
2037,56898.0,云南,峨山,24.11,102.24
2038,56944.0,云南,沧源,23.09,99.16
2039,56946.0,云南,耿马,23.33,99.24
2040,56948.0,云南,西盟,22.38,99.36
2041,56949.0,云南,孟连,22.19,99.36
2042,56950.0,云南,双江,23.28,99.48
2043,56951.0,云南,临沧,23.53,100.05
2044,56952.0,云南,景谷,23.3,100.42
2045,56954.0,云南,澜沧,22.34,99.56
2046,56958.0,云南,勐海,21.55,100.25
2047,56962.0,云南,墨江,23.25,101.4
2048,56964.0,云南,思茅,22.47,100.58
2049,56966.0,云南,元江,23.36,101.59
2050,56969.0,云南,勐腊,21.28,101.35
2051,56970.0,云南,石屏,23.42,102.29
2052,56975.0,云南,红河,23.22,102.26
2053,56976.0,云南,元阳,23.14,102.5
2054,56977.0,云南,江城,22.35,101.51
2055,56978.0,云南,绿春,23.0,102.25
2056,56982.0,云南,开远,23.42,103.17
2057,56984.0,云南,个旧,23.23,103.09
2058,56987.0,云南,金平,22.47,103.14
2059,56991.0,云南,砚山,23.37,104.2
2060,56992.0,云南,西畴,23.27,104.42
2061,56994.0,云南,文山,23.2,104.17
2062,56995.0,云南,马关,23.02,104.25
2063,59007.0,云南,广南,24.04,105.04
2064,59205.0,云南,富宁,23.39,105.38
2065,58443.0,浙江,长兴,31.01,119.54
2066,58446.0,浙江,安吉,30.38,119.42
2067,58448.0,浙江,临安,30.13,119.42
2068,58449.0,浙江,富阳,30.03,119.57
2069,58450.0,浙江,湖州,30.52,120.03
2070,58451.0,浙江,嘉善,30.5,120.56
2071,58452.0,浙江,嘉兴,30.44,120.46
2072,58453.0,浙江,绍兴,30.04,120.3
2073,58454.0,浙江,德清,30.32,119.59
2074,58455.0,浙江,海宁,30.31,120.39
2075,58456.0,浙江,桐乡,30.38,120.31
2076,58457.0,浙江,杭州,30.14,120.1
2077,58458.0,浙江,海盐,30.32,120.54
2078,58459.0,浙江,萧山,30.11,120.17
2079,58464.0,浙江,平湖,30.39,121.07
2080,58467.0,浙江,慈溪,30.12,121.16
2081,58468.0,浙江,余姚,30.03,121.1
2082,58472.0,浙江,嵊泗,30.44,122.27
2083,58477.0,浙江,定海,30.02,122.06
2084,58484.0,浙江,岱山,30.15,122.12
2085,58537.0,浙江,开化,29.08,118.24
2086,58542.0,浙江,桐庐,29.49,119.41
2087,58543.0,浙江,淳安,29.37,119.01
2088,58544.0,浙江,建德,29.29,119.16
2089,58546.0,浙江,浦江,29.28,119.53
2090,58547.0,浙江,龙游,29.02,119.11
2091,58548.0,浙江,兰溪,29.13,119.28
2092,58549.0,浙江,金华,29.07,119.39
2093,58550.0,浙江,诸暨,29.42,120.15
2094,58553.0,浙江,上虞,30.03,120.49
2095,58555.0,浙江,新昌,29.31,120.53
2096,58556.0,浙江,嵊州,29.36,120.49
2097,58557.0,浙江,义乌,29.2,120.05
2098,58558.0,浙江,东阳,29.16,120.13
2099,58559.0,浙江,天台,29.1,120.59
2100,58560.0,浙江,磐安,29.03,120.26
2101,58561.0,浙江,镇海,29.59,121.36
2102,58562.0,浙江,鄞州,29.47,121.33
2103,58563.0,浙江,北仑,29.53,121.5
2104,58565.0,浙江,奉化,29.42,121.23
2105,58566.0,浙江,象山,29.28,121.53
2106,58567.0,浙江,宁海,29.19,121.26
2107,58568.0,浙江,三门,29.07,121.23
2108,58569.0,浙江,石浦,29.12,121.57
2109,58570.0,浙江,普陀,29.57,122.18
2110,58631.0,浙江,常山,28.54,118.3
2111,58632.0,浙江,江山,28.43,118.36
2112,58642.0,浙江,武义,28.53,119.48
2113,58643.0,浙江,永康,28.54,120.02
2114,58644.0,浙江,遂昌,28.36,119.17
2115,58646.0,浙江,丽水,28.27,119.55
2116,58647.0,浙江,龙泉,28.05,119.08
2117,58652.0,浙江,仙居,28.52,120.43
2118,58654.0,浙江,缙云,28.4,120.05
2119,58656.0,浙江,乐清,28.04,120.58
2120,58657.0,浙江,青田,28.09,120.17
2121,58658.0,浙江,永嘉,28.09,120.41
2122,58659.0,浙江,温州,28.02,120.39
2123,58660.0,浙江,临海,28.52,121.12
2124,58664.0,浙江,温岭,28.22,121.22
2125,58665.0,浙江,洪家,28.37,121.25
2126,58666.0,浙江,大陈,28.27,121.54
2127,58667.0,浙江,玉环,28.05,121.16
2128,58742.0,浙江,云和,28.07,119.33
2129,58745.0,浙江,庆元,27.37,119.05
2130,58746.0,浙江,泰顺,27.33,119.42
2131,58750.0,浙江,文成,27.47,120.05
2132,58751.0,浙江,平阳,27.4,120.34
2133,58752.0,浙江,瑞安,27.47,120.39
2134,58648.0,浙江,景宁,28.0,119.38
2135,57333.0,重庆,城口,31.57,108.4
2136,57338.0,重庆,开县,31.11,108.25
2137,57339.0,重庆,云阳,30.57,108.41
2138,57345.0,重庆,巫溪,31.24,109.37
2139,57348.0,重庆,奉节,31.01,109.32
2140,57349.0,重庆,巫山,31.04,109.52
2141,57409.0,重庆,潼南,30.11,105.48
2142,57425.0,重庆,垫江,30.2,107.2
2143,57431.0,重庆,天城,30.5,108.21
2144,57432.0,重庆,万州,30.46,108.24
2145,57437.0,重庆,忠县,30.18,108.02
2146,57438.0,重庆,石柱,29.59,108.07
2147,57502.0,重庆,大足,29.42,105.42
2148,57505.0,重庆,荣昌,29.25,105.35
2149,57506.0,重庆,永川,29.22,105.54
2150,57509.0,重庆,万盛,28.57,106.56
2151,57510.0,重庆,铜梁,29.51,106.04
2152,57511.0,重庆,北碚,29.51,106.27
2153,57512.0,重庆,合川,29.58,106.17
2154,57513.0,重庆,渝北,29.44,106.37
2155,57514.0,重庆,璧山,29.35,106.13
2156,57516.0,重庆,沙坪坝,29.35,106.28
2157,57517.0,重庆,江津,29.17,106.15
2158,57518.0,重庆,巴南,29.2,106.3
2159,57519.0,重庆,南川,29.1,107.07
2160,57520.0,重庆,长寿,29.5,107.04
2161,57523.0,重庆,丰都,29.51,107.44
2162,57525.0,重庆,武隆,29.19,107.45
2163,57536.0,重庆,黔江,29.32,108.47
2164,57537.0,重庆,彭水,29.18,108.1
2165,57612.0,重庆,綦江,29.0,106.39
2166,57633.0,重庆,酉阳,28.49,108.46
2167,57635.0,重庆,秀山,28.27,108.59
2168,89573.0,极地,南极中山,-69.22,-76.22
2169,89058.0,极地,南极长城,-62.13,-58.58
